{
  "AKZ000": {
    "name": "Any County",
    "latitude": 0.0,
    "longitude": 0.0
  },
  "AKZ317": {
    "name": "City and Borough of Yakutat",
    "latitude": 59.8909,
    "longitude": -140.3727
  },
  "AKZ318": {
    "name": "Municipality of Skagway",
    "latitude": 59.5617,
    "longitude": -135.338
  },
  "AKZ319": {
    "name": "Haines Borough and Klukwan",
    "latitude": 59.1229,
    "longitude": -135.5035
  },
  "AKZ320": {
    "name": "Glacier Bay",
    "latitude": 58.7923,
    "longitude": -136.375
  },
  "AKZ321": {
    "name": "Eastern Chichagof Island",
    "latitude": 58.0323,
    "longitude": -135.5319
  },
  "AKZ322": {
    "name": "Cape Fairweather to Lisianski Strait",
    "latitude": 58.3917,
    "longitude": -136.9205
  },
  "AKZ323": {
    "name": "City and Borough of Sitka",
    "latitude": 57.2368,
    "longitude": -135.3018
  },
  "AKZ324": {
    "name": "Admiralty Island",
    "latitude": 57.7045,
    "longitude": -134.0838
  },
  "AKZ325": {
    "name": "City and Borough of Juneau",
    "latitude": 58.458,
    "longitude": -134.1724
  },
  "AKZ326": {
    "name": "Petersburg Borough",
    "latitude": 57.1337,
    "longitude": -132.9266
  },
  "AKZ327": {
    "name": "Western Kupreanof and Kuiu Island",
    "latitude": 56.6439,
    "longitude": -133.8989
  },
  "AKZ328": {
    "name": "Prince of Wales Island",
    "latitude": 55.5012,
    "longitude": -132.8811
  },
  "AKZ329": {
    "name": "City and Borough of Wrangell",
    "latitude": 56.3356,
    "longitude": -132.0134
  },
  "AKZ330": {
    "name": "Ketchikan Gateway Borough",
    "latitude": 55.5976,
    "longitude": -130.9293
  },
  "AKZ331": {
    "name": "City of Hyder",
    "latitude": 55.9588,
    "longitude": -130.169
  },
  "AKZ332": {
    "name": "Annette Island",
    "latitude": 55.1277,
    "longitude": -131.4853
  },
  "AKZ701": {
    "name": "Anchorage",
    "latitude": 61.2546,
    "longitude": -149.7449
  },
  "AKZ702": {
    "name": "Anchorage Hillside / Eagle River",
    "latitude": 61.2344,
    "longitude": -149.2535
  },
  "AKZ703": {
    "name": "East Turnagain Arm",
    "latitude": 61.0624,
    "longitude": -148.8024
  },
  "AKZ704": {
    "name": "Portage",
    "latitude": 60.7892,
    "longitude": -148.8563
  },
  "AKZ711": {
    "name": "Lower Matanuska Valley",
    "latitude": 61.5111,
    "longitude": -149.5513
  },
  "AKZ712": {
    "name": "Hatcher Pass",
    "latitude": 61.859,
    "longitude": -149.4391
  },
  "AKZ713": {
    "name": "Sutton / Upper Matanuska Valley",
    "latitude": 61.6829,
    "longitude": -148.2199
  },
  "AKZ714": {
    "name": "Eureka / Tahneta Pass",
    "latitude": 62.2507,
    "longitude": -147.7116
  },
  "AKZ721": {
    "name": "Southern Kachemak Bay",
    "latitude": 59.4054,
    "longitude": -151.5295
  },
  "AKZ722": {
    "name": "SW Kenai Peninsula",
    "latitude": 59.9437,
    "longitude": -151.2998
  },
  "AKZ723": {
    "name": "NW Kenai Peninsula",
    "latitude": 60.6011,
    "longitude": -150.7365
  },
  "AKZ724": {
    "name": "Skilak Lake",
    "latitude": 60.1401,
    "longitude": -150.3977
  },
  "AKZ725": {
    "name": "Southern Kenai Mtns",
    "latitude": 59.8552,
    "longitude": -149.8886
  },
  "AKZ726": {
    "name": "Interior Kenai Peninsula",
    "latitude": 60.6052,
    "longitude": -149.559
  },
  "AKZ727": {
    "name": "Turnagain Pass",
    "latitude": 60.5451,
    "longitude": -148.9872
  },
  "AKZ728": {
    "name": "West Prince William Sound & Whittier",
    "latitude": 60.7442,
    "longitude": -147.9169
  },
  "AKZ729": {
    "name": "Tyonek",
    "latitude": 60.3611,
    "longitude": -152.9914
  },
  "AKZ731": {
    "name": "Valdez",
    "latitude": 61.0907,
    "longitude": -146.4061
  },
  "AKZ732": {
    "name": "Thompson Pass",
    "latitude": 61.0071,
    "longitude": -145.3406
  },
  "AKZ735": {
    "name": "Cordova",
    "latitude": 60.612,
    "longitude": -144.5039
  },
  "AKZ741": {
    "name": "Northern Copper Valley",
    "latitude": 62.9257,
    "longitude": -145.6057
  },
  "AKZ742": {
    "name": "Western Copper Valley",
    "latitude": 61.8626,
    "longitude": -146.2082
  },
  "AKZ743": {
    "name": "Central Copper Valley",
    "latitude": 62.1845,
    "longitude": -145.1955
  },
  "AKZ744": {
    "name": "Ernestine",
    "latitude": 61.4012,
    "longitude": -145.1326
  },
  "AKZ745": {
    "name": "Western Susitna Valley",
    "latitude": 62.1984,
    "longitude": -151.7162
  },
  "AKZ746": {
    "name": "Southern Susitna Valley",
    "latitude": 61.6585,
    "longitude": -150.4014
  },
  "AKZ747": {
    "name": "Central Susitna Valley",
    "latitude": 62.2259,
    "longitude": -149.997
  },
  "AKZ748": {
    "name": "Northern Susitna Valley",
    "latitude": 62.9725,
    "longitude": -148.3328
  },
  "AKZ749": {
    "name": "Southern Copper Valley",
    "latitude": 61.5735,
    "longitude": -144.6167
  },
  "AKZ750": {
    "name": "Tok Cutoff",
    "latitude": 62.2815,
    "longitude": -143.1439
  },
  "AKZ751": {
    "name": "McCarthy",
    "latitude": 61.2069,
    "longitude": -142.7127
  },
  "AKZ752": {
    "name": "Kuskokwim Valley West",
    "latitude": 61.4638,
    "longitude": -159.4907
  },
  "AKZ753": {
    "name": "Kuskokwim Valley East",
    "latitude": 61.4848,
    "longitude": -157.3067
  },
  "AKZ754": {
    "name": "Lime Village",
    "latitude": 61.5129,
    "longitude": -154.5599
  },
  "AKZ755": {
    "name": "Kuskokwim Delta Coast and Nunivak Island",
    "latitude": 60.3165,
    "longitude": -163.7872
  },
  "AKZ756": {
    "name": "Interior Kuskokwim Delta",
    "latitude": 60.681,
    "longitude": -161.2797
  },
  "AKZ757": {
    "name": "Western Capes",
    "latitude": 59.056,
    "longitude": -161.4634
  },
  "AKZ761": {
    "name": "Central Alaska Peninsula",
    "latitude": 56.5814,
    "longitude": -158.8735
  },
  "AKZ762": {
    "name": "Northern Alaska Peninsula",
    "latitude": 57.815,
    "longitude": -156.8591
  },
  "AKZ763": {
    "name": "Bristol Bay Borough (Naknek and King Salmon)",
    "latitude": 58.7436,
    "longitude": -156.7001
  },
  "AKZ764": {
    "name": "Northern Bristol Bay Coast",
    "latitude": 58.9826,
    "longitude": -159.0294
  },
  "AKZ765": {
    "name": "Inland Bristol Bay",
    "latitude": 60.0562,
    "longitude": -157.9866
  },
  "AKZ766": {
    "name": "Lake Iliamna / Nila Vena / Nanvarpak",
    "latitude": 59.6939,
    "longitude": -155.161
  },
  "AKZ771": {
    "name": "Kodiak Island Northeast",
    "latitude": 57.8834,
    "longitude": -152.7946
  },
  "AKZ772": {
    "name": "Kodiak Island Southwest",
    "latitude": 57.5852,
    "longitude": -154.3415
  },
  "AKZ773": {
    "name": "Chignik",
    "latitude": 56.424,
    "longitude": -158.2939
  },
  "AKZ781": {
    "name": "Southern Alaska Peninsula",
    "latitude": 55.4039,
    "longitude": -161.8624
  },
  "AKZ785": {
    "name": "Eastern Aleutians",
    "latitude": 53.5983,
    "longitude": -167.2049
  },
  "AKZ787": {
    "name": "Central Aleutians",
    "latitude": 52.0606,
    "longitude": -175.0778
  },
  "AKZ791": {
    "name": "Western Aleutians",
    "latitude": 52.3658,
    "longitude": 175.5398
  },
  "AKZ795": {
    "name": "Pribilof Islands",
    "latitude": 56.9151,
    "longitude": -169.9829
  },
  "AKZ801": {
    "name": "Western Arctic Coast",
    "latitude": 69.0153,
    "longitude": -164.1034
  },
  "AKZ802": {
    "name": "Northwest Arctic Coast",
    "latitude": 70.302,
    "longitude": -159.5078
  },
  "AKZ803": {
    "name": "Northern Arctic Coast",
    "latitude": 70.6873,
    "longitude": -155.3712
  },
  "AKZ804": {
    "name": "Central Beaufort Sea Coast",
    "latitude": 70.2069,
    "longitude": -149.5614
  },
  "AKZ805": {
    "name": "Eastern Beaufort Sea Coast",
    "latitude": 69.8543,
    "longitude": -144.0059
  },
  "AKZ806": {
    "name": "Western Arctic Plains",
    "latitude": 69.4448,
    "longitude": -157.04
  },
  "AKZ807": {
    "name": "Howard Pass and the Delong Mountains",
    "latitude": 68.4493,
    "longitude": -159.5284
  },
  "AKZ808": {
    "name": "Central Arctic Plains",
    "latitude": 69.3952,
    "longitude": -150.0441
  },
  "AKZ809": {
    "name": "Central Brooks Range",
    "latitude": 68.4504,
    "longitude": -151.0112
  },
  "AKZ810": {
    "name": "Romanzof Mountains",
    "latitude": 68.9538,
    "longitude": -144.9103
  },
  "AKZ811": {
    "name": "South Slopes Of The Eastern Brooks Range",
    "latitude": 67.8478,
    "longitude": -144.9154
  },
  "AKZ812": {
    "name": "South Slopes Of The Central Brooks Range",
    "latitude": 67.563,
    "longitude": -151.9616
  },
  "AKZ813": {
    "name": "South Slopes of the Western Brooks Range",
    "latitude": 67.6229,
    "longitude": -157.2874
  },
  "AKZ814": {
    "name": "Noatak Valley",
    "latitude": 67.6845,
    "longitude": -161.9252
  },
  "AKZ815": {
    "name": "Kivalina and Red Dog Dock",
    "latitude": 67.6084,
    "longitude": -164.1692
  },
  "AKZ816": {
    "name": "Lower Kobuk Valley",
    "latitude": 66.7012,
    "longitude": -160.5806
  },
  "AKZ817": {
    "name": "Baldwin Peninsula",
    "latitude": 66.562,
    "longitude": -161.7137
  },
  "AKZ818": {
    "name": "Northern Seward Peninsula",
    "latitude": 65.8646,
    "longitude": -161.6973
  },
  "AKZ819": {
    "name": "Upper Kobuk Valleys",
    "latitude": 66.7755,
    "longitude": -157.3906
  },
  "AKZ820": {
    "name": "Shishmaref",
    "latitude": 66.1172,
    "longitude": -165.8661
  },
  "AKZ821": {
    "name": "Bering Strait Coast",
    "latitude": 65.4254,
    "longitude": -166.6301
  },
  "AKZ822": {
    "name": "Southern Seward Peninsula Coast",
    "latitude": 64.6146,
    "longitude": -164.4872
  },
  "AKZ823": {
    "name": "Interior Seward Peninsula",
    "latitude": 65.2676,
    "longitude": -163.7898
  },
  "AKZ824": {
    "name": "Eastern Norton Sound and Nulato Hills",
    "latitude": 64.2126,
    "longitude": -160.8843
  },
  "AKZ825": {
    "name": "Yukon Delta Coast",
    "latitude": 62.1505,
    "longitude": -164.2482
  },
  "AKZ826": {
    "name": "Lower Yukon River",
    "latitude": 62.1614,
    "longitude": -162.0476
  },
  "AKZ827": {
    "name": "St Lawrence Island",
    "latitude": 63.3895,
    "longitude": -170.3421
  },
  "AKZ828": {
    "name": "Lower Koyukuk Valley",
    "latitude": 65.6686,
    "longitude": -156.8514
  },
  "AKZ829": {
    "name": "Middle Yukon Valley",
    "latitude": 64.4693,
    "longitude": -156.7719
  },
  "AKZ830": {
    "name": "Lower Yukon and Innoko Valleys",
    "latitude": 63.0676,
    "longitude": -158.3318
  },
  "AKZ831": {
    "name": "Upper Koyukuk Valley",
    "latitude": 66.3537,
    "longitude": -152.8923
  },
  "AKZ832": {
    "name": "Dalton Highway Summits",
    "latitude": 66.3044,
    "longitude": -150.2855
  },
  "AKZ833": {
    "name": "Yukon Flats",
    "latitude": 66.5037,
    "longitude": -144.6114
  },
  "AKZ834": {
    "name": "White Mountains and High Terrain South of the Yukon River",
    "latitude": 65.4534,
    "longitude": -146.8275
  },
  "AKZ835": {
    "name": "Fortymile Country",
    "latitude": 64.3508,
    "longitude": -142.5483
  },
  "AKZ836": {
    "name": "Upper Tanana Valley",
    "latitude": 63.001,
    "longitude": -142.5274
  },
  "AKZ837": {
    "name": "Delta Junction",
    "latitude": 64.0669,
    "longitude": -145.6591
  },
  "AKZ838": {
    "name": "Upper Chena River Valley",
    "latitude": 64.8331,
    "longitude": -145.4137
  },
  "AKZ839": {
    "name": "Tanana Flats",
    "latitude": 64.4851,
    "longitude": -147.5782
  },
  "AKZ840": {
    "name": "Eielson AFB and Salcha",
    "latitude": 64.5731,
    "longitude": -146.8032
  },
  "AKZ841": {
    "name": "Goldstream Valley and Nenana Hills",
    "latitude": 64.8224,
    "longitude": -148.4062
  },
  "AKZ842": {
    "name": "Chatanika River Valley",
    "latitude": 65.1445,
    "longitude": -147.4898
  },
  "AKZ843": {
    "name": "Two Rivers",
    "latitude": 64.915,
    "longitude": -146.8659
  },
  "AKZ844": {
    "name": "Fairbanks Metro Area",
    "latitude": 64.8465,
    "longitude": -147.68
  },
  "AKZ845": {
    "name": "Nenana",
    "latitude": 64.537,
    "longitude": -148.7876
  },
  "AKZ846": {
    "name": "Central Interior",
    "latitude": 64.7482,
    "longitude": -151.8256
  },
  "AKZ847": {
    "name": "Northern Denali Borough",
    "latitude": 63.8132,
    "longitude": -150.1015
  },
  "AKZ848": {
    "name": "Southern Denali Borough",
    "latitude": 63.3247,
    "longitude": -149.7918
  },
  "AKZ849": {
    "name": "Eastern Alaska Range North of Trims Camp",
    "latitude": 63.725,
    "longitude": -145.7849
  },
  "AKZ850": {
    "name": "Eastern Alaska Range South of Trims Camp",
    "latitude": 63.315,
    "longitude": -145.1328
  },
  "AKZ851": {
    "name": "North Slopes of the Western Alaska Range",
    "latitude": 62.5097,
    "longitude": -153.8583
  },
  "AKZ852": {
    "name": "Upper Kuskokwim Valley",
    "latitude": 62.8529,
    "longitude": -155.2266
  },
  "ALZ000": {
    "name": "Any County",
    "latitude": 0.0,
    "longitude": 0.0
  },
  "ALZ001": {
    "name": "Lauderdale",
    "latitude": 34.9015,
    "longitude": -87.6543
  },
  "ALZ002": {
    "name": "Colbert",
    "latitude": 34.7004,
    "longitude": -87.8049
  },
  "ALZ003": {
    "name": "Franklin",
    "latitude": 34.4417,
    "longitude": -87.8438
  },
  "ALZ004": {
    "name": "Lawrence",
    "latitude": 34.522,
    "longitude": -87.311
  },
  "ALZ005": {
    "name": "Limestone",
    "latitude": 34.8101,
    "longitude": -86.9813
  },
  "ALZ006": {
    "name": "Madison",
    "latitude": 34.7631,
    "longitude": -86.5502
  },
  "ALZ007": {
    "name": "Morgan",
    "latitude": 34.4535,
    "longitude": -86.8529
  },
  "ALZ008": {
    "name": "Marshall",
    "latitude": 34.3669,
    "longitude": -86.3066
  },
  "ALZ009": {
    "name": "Jackson",
    "latitude": 34.7794,
    "longitude": -85.9993
  },
  "ALZ010": {
    "name": "DeKalb",
    "latitude": 34.4598,
    "longitude": -85.8041
  },
  "ALZ011": {
    "name": "Marion",
    "latitude": 34.1366,
    "longitude": -87.8871
  },
  "ALZ012": {
    "name": "Lamar",
    "latitude": 33.7792,
    "longitude": -88.0969
  },
  "ALZ013": {
    "name": "Fayette",
    "latitude": 33.7212,
    "longitude": -87.7388
  },
  "ALZ014": {
    "name": "Winston",
    "latitude": 34.1492,
    "longitude": -87.3737
  },
  "ALZ015": {
    "name": "Walker",
    "latitude": 33.8034,
    "longitude": -87.2973
  },
  "ALZ016": {
    "name": "Cullman",
    "latitude": 34.132,
    "longitude": -86.8676
  },
  "ALZ017": {
    "name": "Blount",
    "latitude": 33.9809,
    "longitude": -86.5674
  },
  "ALZ018": {
    "name": "Etowah",
    "latitude": 34.0453,
    "longitude": -86.0348
  },
  "ALZ019": {
    "name": "Calhoun",
    "latitude": 33.7714,
    "longitude": -85.8261
  },
  "ALZ020": {
    "name": "Cherokee",
    "latitude": 34.176,
    "longitude": -85.6038
  },
  "ALZ021": {
    "name": "Cleburne",
    "latitude": 33.6745,
    "longitude": -85.5188
  },
  "ALZ022": {
    "name": "Pickens",
    "latitude": 33.2809,
    "longitude": -88.0887
  },
  "ALZ023": {
    "name": "Tuscaloosa",
    "latitude": 33.2896,
    "longitude": -87.525
  },
  "ALZ024": {
    "name": "Jefferson",
    "latitude": 33.5543,
    "longitude": -86.8965
  },
  "ALZ025": {
    "name": "Shelby",
    "latitude": 33.2643,
    "longitude": -86.6607
  },
  "ALZ026": {
    "name": "St. Clair",
    "latitude": 33.7157,
    "longitude": -86.3147
  },
  "ALZ027": {
    "name": "Talladega",
    "latitude": 33.38,
    "longitude": -86.1659
  },
  "ALZ028": {
    "name": "Clay",
    "latitude": 33.2691,
    "longitude": -85.8605
  },
  "ALZ029": {
    "name": "Randolph",
    "latitude": 33.2938,
    "longitude": -85.4591
  },
  "ALZ030": {
    "name": "Sumter",
    "latitude": 32.591,
    "longitude": -88.1988
  },
  "ALZ031": {
    "name": "Greene",
    "latitude": 32.8531,
    "longitude": -87.9522
  },
  "ALZ032": {
    "name": "Hale",
    "latitude": 32.7627,
    "longitude": -87.6291
  },
  "ALZ033": {
    "name": "Perry",
    "latitude": 32.6385,
    "longitude": -87.2942
  },
  "ALZ034": {
    "name": "Bibb",
    "latitude": 32.9986,
    "longitude": -87.1264
  },
  "ALZ035": {
    "name": "Chilton",
    "latitude": 32.8479,
    "longitude": -86.7188
  },
  "ALZ036": {
    "name": "Coosa",
    "latitude": 32.9362,
    "longitude": -86.2476
  },
  "ALZ037": {
    "name": "Tallapoosa",
    "latitude": 32.8624,
    "longitude": -85.7975
  },
  "ALZ038": {
    "name": "Chambers",
    "latitude": 32.9144,
    "longitude": -85.392
  },
  "ALZ039": {
    "name": "Marengo",
    "latitude": 32.2476,
    "longitude": -87.7895
  },
  "ALZ040": {
    "name": "Dallas",
    "latitude": 32.3258,
    "longitude": -87.1065
  },
  "ALZ041": {
    "name": "Autauga",
    "latitude": 32.5349,
    "longitude": -86.6428
  },
  "ALZ042": {
    "name": "Lowndes",
    "latitude": 32.1548,
    "longitude": -86.6501
  },
  "ALZ043": {
    "name": "Elmore",
    "latitude": 32.5966,
    "longitude": -86.1492
  },
  "ALZ044": {
    "name": "Montgomery",
    "latitude": 32.2202,
    "longitude": -86.2076
  },
  "ALZ045": {
    "name": "Macon",
    "latitude": 32.386,
    "longitude": -85.6926
  },
  "ALZ046": {
    "name": "Bullock",
    "latitude": 32.1005,
    "longitude": -85.7161
  },
  "ALZ047": {
    "name": "Lee",
    "latitude": 32.6012,
    "longitude": -85.3556
  },
  "ALZ048": {
    "name": "Russell",
    "latitude": 32.2884,
    "longitude": -85.1849
  },
  "ALZ049": {
    "name": "Pike",
    "latitude": 31.8024,
    "longitude": -85.9409
  },
  "ALZ050": {
    "name": "Barbour",
    "latitude": 31.8696,
    "longitude": -85.3932
  },
  "ALZ051": {
    "name": "Choctaw",
    "latitude": 32.0192,
    "longitude": -88.2628
  },
  "ALZ052": {
    "name": "Washington",
    "latitude": 31.4077,
    "longitude": -88.2071
  },
  "ALZ053": {
    "name": "Clarke",
    "latitude": 31.6709,
    "longitude": -87.8309
  },
  "ALZ054": {
    "name": "Wilcox",
    "latitude": 31.9892,
    "longitude": -87.3082
  },
  "ALZ055": {
    "name": "Monroe",
    "latitude": 31.5706,
    "longitude": -87.3658
  },
  "ALZ056": {
    "name": "Conecuh",
    "latitude": 31.4293,
    "longitude": -86.9936
  },
  "ALZ057": {
    "name": "Butler",
    "latitude": 31.7524,
    "longitude": -86.6803
  },
  "ALZ058": {
    "name": "Crenshaw",
    "latitude": 31.7315,
    "longitude": -86.3136
  },
  "ALZ059": {
    "name": "Escambia",
    "latitude": 31.1262,
    "longitude": -87.1616
  },
  "ALZ060": {
    "name": "Covington",
    "latitude": 31.2485,
    "longitude": -86.4512
  },
  "ALZ065": {
    "name": "Coffee",
    "latitude": 31.4026,
    "longitude": -85.9882
  },
  "ALZ066": {
    "name": "Dale",
    "latitude": 31.4318,
    "longitude": -85.611
  },
  "ALZ067": {
    "name": "Henry",
    "latitude": 31.5147,
    "longitude": -85.2414
  },
  "ALZ068": {
    "name": "Geneva",
    "latitude": 31.095,
    "longitude": -85.839
  },
  "ALZ069": {
    "name": "Houston",
    "latitude": 31.1532,
    "longitude": -85.3025
  },
  "ALZ261": {
    "name": "Mobile Inland",
    "latitude": 30.9712,
    "longitude": -88.1763
  },
  "ALZ262": {
    "name": "Baldwin Inland",
    "latitude": 31.0199,
    "longitude": -87.7677
  },
  "ALZ263": {
    "name": "Mobile Central",
    "latitude": 30.6559,
    "longitude": -88.2327
  },
  "ALZ264": {
    "name": "Baldwin Central",
    "latitude": 30.5912,
    "longitude": -87.6925
  },
  "ALZ265": {
    "name": "Mobile Coastal",
    "latitude": 30.4279,
    "longitude": -88.2224
  },
  "ALZ266": {
    "name": "Baldwin Coastal",
    "latitude": 30.3522,
    "longitude": -87.6493
  },
  "AMZ000": {
    "name": "Any Zone",
    "latitude": 0.0,
    "longitude": 0.0
  },
  "AMZ131": {
    "name": "Alligator River",
    "latitude": 35.8324,
    "longitude": -76.008
  },
  "AMZ135": {
    "name": "Pamlico Sound",
    "latitude": 35.332,
    "longitude": -75.9574
  },
  "AMZ136": {
    "name": "Pamlico and Pungo Rivers",
    "latitude": 35.421,
    "longitude": -76.6707
  },
  "AMZ137": {
    "name": "Neuse and Bay Rivers",
    "latitude": 35.0472,
    "longitude": -76.6806
  },
  "AMZ150": {
    "name": "S of Currituck Beach Light NC to Oregon Inlet NC out to 20 nm",
    "latitude": 36.0001,
    "longitude": -75.4596
  },
  "AMZ152": {
    "name": "S of Oregon Inlet NC to Cape Hatteras NC out to 20 nm",
    "latitude": 35.4786,
    "longitude": -75.3163
  },
  "AMZ154": {
    "name": "S of Cape Hatteras NC to Ocracoke Inlet NC out to 20 nm",
    "latitude": 35.0528,
    "longitude": -75.5899
  },
  "AMZ156": {
    "name": "S of Ocracoke Inlet NC to Cape Lookout NC out to 20 nm",
    "latitude": 34.7607,
    "longitude": -76.1689
  },
  "AMZ158": {
    "name": "S of Cape Lookout NC to Surf City NC out to 20 nm",
    "latitude": 34.477,
    "longitude": -76.8861
  },
  "AMZ170": {
    "name": "Waters from Currituck Beach Light to Oregon Inlet NC from 20 to 40 nm",
    "latitude": 36.0131,
    "longitude": -75.0889
  },
  "AMZ172": {
    "name": "Waters from Oregon Inlet to Cape Hatteras NC from 20 to 40 nm",
    "latitude": 35.4428,
    "longitude": -74.9841
  },
  "AMZ174": {
    "name": "Waters from Cape Hatteras to Ocracoke Inlet NC from 20 to 40 nm",
    "latitude": 34.8575,
    "longitude": -75.2401
  },
  "AMZ176": {
    "name": "Waters fromOcracoke Inlet to Cape Lookout NC from 20 to 40 nm",
    "latitude": 34.5446,
    "longitude": -75.8504
  },
  "AMZ178": {
    "name": "Waters from Cape Lookout  to Surf City NC from 20 to 40 nm",
    "latitude": 34.1398,
    "longitude": -76.6018
  },
  "AMZ230": {
    "name": "Albemarle Sound",
    "latitude": 36.0352,
    "longitude": -76.18
  },
  "AMZ231": {
    "name": "Croatan and Roanoke Sounds",
    "latitude": 35.8968,
    "longitude": -75.6909
  },
  "AMZ250": {
    "name": "Coastal waters from Surf City to Cape Fear NC out 20 nm",
    "latitude": 34.0617,
    "longitude": -77.6492
  },
  "AMZ252": {
    "name": "Coastal waters from Cape Fear NC to Little River Inlet SC out 20 nm",
    "latitude": 33.717,
    "longitude": -78.1023
  },
  "AMZ254": {
    "name": "Coastal waters from Little River Inlet to Murrells Inlet SC out 20 nm",
    "latitude": 33.614,
    "longitude": -78.6524
  },
  "AMZ256": {
    "name": "Coastal waters from Murrells Inlet to South Santee River SC out 20 nm",
    "latitude": 33.2507,
    "longitude": -78.9884
  },
  "AMZ270": {
    "name": "Waters from Surf City to Cape Fear NC from 20 to 40 nm",
    "latitude": 33.8424,
    "longitude": -77.3782
  },
  "AMZ272": {
    "name": "Waters from Cape Fear NC to Little River Inlet SC from 20 to 40 nm",
    "latitude": 33.4112,
    "longitude": -77.761
  },
  "AMZ274": {
    "name": "Waters from Little River Inlet to Murrells Inlet SC from 20 to 40 nm",
    "latitude": 33.3595,
    "longitude": -78.2427
  },
  "AMZ276": {
    "name": "Waters from Murrells Inlet NC to South Santee River SC from 20 to 40 nm",
    "latitude": 33.1002,
    "longitude": -78.6653
  },
  "AMZ330": {
    "name": "Charleston Harbor",
    "latitude": 32.7736,
    "longitude": -79.9025
  },
  "AMZ350": {
    "name": "Coastal waters from South Santee River to Edisto Beach SC out 20 nm",
    "latitude": 32.7005,
    "longitude": -79.6024
  },
  "AMZ352": {
    "name": "Coastal waters from Edisto Beach SC to Savannah GA out 20 nm",
    "latitude": 32.1842,
    "longitude": -80.4171
  },
  "AMZ354": {
    "name": "Coastal waters from Savannah GA to Altamaha Sound GA out 20 nm ...including Grays Reef National Marine Sanctuary",
    "latitude": 31.6166,
    "longitude": -80.9421
  },
  "AMZ370": {
    "name": "Waters from South Santee River SC to Edisto Beach SC extending from 20 nm to 40 nm",
    "latitude": 32.5297,
    "longitude": -79.231
  },
  "AMZ372": {
    "name": "Waters from Edisto Beach SC to Savannah GA extending from 20 nm to 40 nm",
    "latitude": 32.0116,
    "longitude": -80.0287
  },
  "AMZ374": {
    "name": "Waters from Savannah GA to Altamaha Sound GA extending from 20 nm to 60 nm",
    "latitude": 31.4712,
    "longitude": -80.4295
  },
  "AMZ450": {
    "name": "Coastal waters from Altamaha Sound to Fernandina Beach FL out 20 NM",
    "latitude": 30.9763,
    "longitude": -81.2437
  },
  "AMZ452": {
    "name": "Coastal waters from Fernandina Beach to St. Augustine FL out 20 NM",
    "latitude": 30.2882,
    "longitude": -81.2117
  },
  "AMZ454": {
    "name": "Coastal waters from St. Augustine to Flagler Beach FL out 20 NM",
    "latitude": 29.6863,
    "longitude": -81.0346
  },
  "AMZ470": {
    "name": "Waters from Altamaha Sound GA to Fernandina Beach FL from 20 to 60 NM",
    "latitude": 30.8938,
    "longitude": -80.7054
  },
  "AMZ472": {
    "name": "Waters from Fernandina Beach to St. Augustine FL from 20 to 60 NM",
    "latitude": 30.2498,
    "longitude": -80.6826
  },
  "AMZ474": {
    "name": "Waters from St. Augustine to Flagler Beach FL from 20 to 60 NM",
    "latitude": 29.687,
    "longitude": -80.477
  },
  "AMZ550": {
    "name": "Flagler Beach to Volusia-Brevard County Line 0-20 nm",
    "latitude": 29.1472,
    "longitude": -80.7638
  },
  "AMZ552": {
    "name": "Volusia-Brevard County Line to Sebastian Inlet 0-20 nm",
    "latitude": 28.3687,
    "longitude": -80.4425
  },
  "AMZ555": {
    "name": "Sebastian Inlet to Jupiter Inlet 0-20 nm",
    "latitude": 27.4201,
    "longitude": -80.0924
  },
  "AMZ570": {
    "name": "Flagler Beach to Volusia-Brevard County Line 20-60 nm",
    "latitude": 29.1848,
    "longitude": -80.1957
  },
  "AMZ572": {
    "name": "Volusia-Brevard County Line to Sebastian Inlet 20-60 nm",
    "latitude": 28.4186,
    "longitude": -79.8804
  },
  "AMZ575": {
    "name": "Sebastian Inlet to Jupiter Inlet 20-60 nm",
    "latitude": 27.4643,
    "longitude": -79.5572
  },
  "AMZ610": {
    "name": "Lake Okeechobee",
    "latitude": 26.9426,
    "longitude": -80.8345
  },
  "AMZ630": {
    "name": "Biscayne Bay",
    "latitude": 25.5564,
    "longitude": -80.2415
  },
  "AMZ650": {
    "name": "Coastal waters from Jupiter Inlet to Deerfield Beach FL out 20 NM",
    "latitude": 26.6319,
    "longitude": -79.8822
  },
  "AMZ651": {
    "name": "Coastal waters from Deerfield Beach to Ocean Reef FL out 20 NM",
    "latitude": 25.7516,
    "longitude": -79.9815
  },
  "AMZ670": {
    "name": "Waters from Jupiter Inlet to Deerfield Beach FL from 20 to 60 NM",
    "latitude": 26.5888,
    "longitude": -79.3734
  },
  "AMZ671": {
    "name": "Waters from Deerfield Beach to Ocean Reef FL from 20 to 60 NM excluding the territorial waters of Bahamas",
    "latitude": 25.515,
    "longitude": -79.5098
  },
  "AMZ711": {
    "name": "Atlantic Waters of Puerto Rico AND USVI from 10 NM to 19.5N",
    "latitude": 19.0481,
    "longitude": -66.0232
  },
  "AMZ712": {
    "name": "Coastal Waters of Northern Puerto Rico out 10 NM",
    "latitude": 18.5547,
    "longitude": -66.4417
  },
  "AMZ716": {
    "name": "Coastal Waters from Cabo San Juan to the waters between Anegada Island and Virgin Gorda and North 10 NM",
    "latitude": 18.4775,
    "longitude": -64.9498
  },
  "AMZ723": {
    "name": "Anegada Passage east of Virgin Gorda and Saint Croix south to 17N",
    "latitude": 17.71,
    "longitude": -64.2892
  },
  "AMZ726": {
    "name": "Coastal Waters east of Puerto Rico around Vieques and around and just north of Culebra and Saint John",
    "latitude": 18.1811,
    "longitude": -65.1448
  },
  "AMZ733": {
    "name": "Caribbean Waters of Puerto Rico from 10 NM to 17N including the Coastal Waters of Saint Croix",
    "latitude": 17.4584,
    "longitude": -65.893
  },
  "AMZ735": {
    "name": "Coastal Waters of Southern Puerto Rico out 10 NM",
    "latitude": 17.8701,
    "longitude": -66.5369
  },
  "AMZ741": {
    "name": "Mona Passage Southward to 17N",
    "latitude": 17.7404,
    "longitude": -67.6909
  },
  "AMZ742": {
    "name": "Coastal Waters OF Northwestern Puerto Rico out 10 NM",
    "latitude": 18.3412,
    "longitude": -67.3023
  },
  "AMZ745": {
    "name": "Coastal Waters OF Southwestern Puerto Rico out 10 NM",
    "latitude": 18.0643,
    "longitude": -67.2841
  },
  "ANZ000": {
    "name": "Any Zone",
    "latitude": 0.0,
    "longitude": 0.0
  },
  "ANZ050": {
    "name": "Coastal Waters from Eastport ME to Schoodic Point ME out 25 NM",
    "latitude": 44.3552,
    "longitude": -67.5746
  },
  "ANZ051": {
    "name": "Coastal Waters from Schoodic Point ME to Stonington ME out 25 NM",
    "latitude": 43.9899,
    "longitude": -68.24
  },
  "ANZ052": {
    "name": "Intra Coastal Waters from Schoodic Point ME to Stonington ME",
    "latitude": 44.2663,
    "longitude": -68.3834
  },
  "ANZ070": {
    "name": "Waters from Eastport ME to Schoodic Point ME from 25 to 40 nm",
    "latitude": 43.8921,
    "longitude": -67.6127
  },
  "ANZ071": {
    "name": "Waters from Schoodic Point ME to Stonington ME from 25 to 40 nm",
    "latitude": 43.687,
    "longitude": -68.1856
  },
  "ANZ150": {
    "name": "Coastal Waters from Stonington ME to Port Clyde ME out 25 NM",
    "latitude": 43.8291,
    "longitude": -68.9019
  },
  "ANZ151": {
    "name": "Penobscot Bay",
    "latitude": 44.2241,
    "longitude": -68.8524
  },
  "ANZ152": {
    "name": "Coastal Waters from Port Clyde ME to Cape Elizabeth ME out 25 NM",
    "latitude": 43.6224,
    "longitude": -69.5669
  },
  "ANZ153": {
    "name": "Casco Bay",
    "latitude": 43.718,
    "longitude": -70.0597
  },
  "ANZ154": {
    "name": "Coastal Waters from Cape Elizabeth ME to Merrimack River MA out 25 NM",
    "latitude": 43.1523,
    "longitude": -70.2998
  },
  "ANZ170": {
    "name": "Waters from Stonington ME to Port Clyde ME from 25 to 40 nm",
    "latitude": 43.5176,
    "longitude": -68.7402
  },
  "ANZ172": {
    "name": "Waters from Port Clyde ME to Cape Elizabeth ME from 25 to 40 nm",
    "latitude": 43.3046,
    "longitude": -69.2959
  },
  "ANZ174": {
    "name": "Waters from Cape Elizabeth ME to Merrimack River MA from 25 to 40 nm",
    "latitude": 43.0551,
    "longitude": -69.7926
  },
  "ANZ230": {
    "name": "Boston Harbor",
    "latitude": 42.3446,
    "longitude": -70.9337
  },
  "ANZ231": {
    "name": "Cape Cod Bay",
    "latitude": 41.8922,
    "longitude": -70.2911
  },
  "ANZ232": {
    "name": "Nantucket Sound",
    "latitude": 41.4832,
    "longitude": -70.2452
  },
  "ANZ233": {
    "name": "Vineyard Sound",
    "latitude": 41.43,
    "longitude": -70.7652
  },
  "ANZ234": {
    "name": "Buzzards Bay",
    "latitude": 41.566,
    "longitude": -70.8072
  },
  "ANZ235": {
    "name": "Rhode Island Sound",
    "latitude": 41.3386,
    "longitude": -71.1599
  },
  "ANZ236": {
    "name": "Narragansett Bay",
    "latitude": 41.5812,
    "longitude": -71.3224
  },
  "ANZ237": {
    "name": "Block Island Sound",
    "latitude": 41.2285,
    "longitude": -71.6381
  },
  "ANZ250": {
    "name": "Coastal waters east of Ipswich Bay and the Stellwagen Bank National Marine Sanctuary",
    "latitude": 42.4207,
    "longitude": -70.2106
  },
  "ANZ251": {
    "name": "Massachusetts Bay and Ipswich Bay",
    "latitude": 42.4231,
    "longitude": -70.6696
  },
  "ANZ254": {
    "name": "Coastal waters from Provincetown MA to Chatham MA to Nantucket MA out 20 nm",
    "latitude": 41.6352,
    "longitude": -69.7327
  },
  "ANZ255": {
    "name": "Coastal Waters extending out to 25 nm South of Marthas Vineyard and Nantucket",
    "latitude": 41.1134,
    "longitude": -70.2635
  },
  "ANZ256": {
    "name": "Coastal Waters from Montauk NY to Marthas Vineyard extending out to 20 nm South of Block Island",
    "latitude": 41.0273,
    "longitude": -71.21
  },
  "ANZ270": {
    "name": "Ocean Waters from the Merrimack River to Plymouth from 40 to 60 NM offshore",
    "latitude": 42.5478,
    "longitude": -69.7225
  },
  "ANZ271": {
    "name": "Ocean Waters from Provincetown to Nantucket from 20 to 35 NM offshore",
    "latitude": 41.5616,
    "longitude": -69.3363
  },
  "ANZ272": {
    "name": "Ocean Waters from Marthas Vineyard to Nantucket from 25 to 45 NM offshore",
    "latitude": 40.7706,
    "longitude": -70.0034
  },
  "ANZ273": {
    "name": "Ocean Waters from Montauk NY to Marthas Vineyard from 25 to 40 NM offshore",
    "latitude": 40.7124,
    "longitude": -71.0166
  },
  "ANZ331": {
    "name": "Long Island Sound East of New Haven CT/Port Jefferson NY to the Mouth of the Connecticut River",
    "latitude": 41.1272,
    "longitude": -72.6793
  },
  "ANZ332": {
    "name": "Long Island Sound East of the Mouth of the Connecticut River",
    "latitude": 41.2062,
    "longitude": -72.0533
  },
  "ANZ335": {
    "name": "Long Island Sound West of New Haven CT/Port Jefferson NY",
    "latitude": 41.0171,
    "longitude": -73.3206
  },
  "ANZ338": {
    "name": "New York Harbor",
    "latitude": 40.524,
    "longitude": -74.0787
  },
  "ANZ340": {
    "name": "Peconic and Gardiners Bays",
    "latitude": 41.0336,
    "longitude": -72.3134
  },
  "ANZ345": {
    "name": "South Shore Bays from Jones Inlet through Shinnecock Bay",
    "latitude": 40.7084,
    "longitude": -73.0702
  },
  "ANZ350": {
    "name": "Moriches Inlet NY to Montauk Point NY out 20 nm",
    "latitude": 40.7494,
    "longitude": -72.2066
  },
  "ANZ353": {
    "name": "Fire Island Inlet NY to Moriches Inlet NY out 20 nm",
    "latitude": 40.5168,
    "longitude": -72.9638
  },
  "ANZ355": {
    "name": "Sandy Hook NJ to Fire Island Inlet NY out 20 nm",
    "latitude": 40.4464,
    "longitude": -73.5746
  },
  "ANZ370": {
    "name": "Waters from Moriches Inlet NY to Montauk Point NY from 20 to 40 NM",
    "latitude": 40.4509,
    "longitude": -72.0065
  },
  "ANZ373": {
    "name": "Waters from Fire Island Inlet NY to Moriches Inlet NY from 20 to 40 NM",
    "latitude": 40.2058,
    "longitude": -72.8053
  },
  "ANZ375": {
    "name": "Waters from Sandy Hook NJ to Fire Island Inlet out 20 to 40 nm",
    "latitude": 40.1112,
    "longitude": -73.3044
  },
  "ANZ430": {
    "name": "Delaware Bay waters north of East Point NJ to Slaughter Beach DE",
    "latitude": 39.2424,
    "longitude": -75.3419
  },
  "ANZ431": {
    "name": "Delaware Bay waters south of East Point NJ to Slaughter Beach DE",
    "latitude": 39.0014,
    "longitude": -75.0839
  },
  "ANZ450": {
    "name": "Coastal waters from Sandy Hook to Manasquan Inlet NJ out 20 nm",
    "latitude": 40.2028,
    "longitude": -73.8451
  },
  "ANZ451": {
    "name": "Coastal waters from Manasquan Inlet to Little Egg Inlet NJ out 20 nm",
    "latitude": 39.7277,
    "longitude": -73.997
  },
  "ANZ452": {
    "name": "Coastal waters from Little Egg Inlet to Great Egg Inlet NJ out 20 nm",
    "latitude": 39.3207,
    "longitude": -74.2569
  },
  "ANZ453": {
    "name": "Coastal waters from Great Egg Inlet to Cape May NJ out 20 nm",
    "latitude": 39.0498,
    "longitude": -74.5448
  },
  "ANZ454": {
    "name": "Coastal waters from Cape May NJ to Cape Henlopen DE out 20 nm",
    "latitude": 38.7936,
    "longitude": -74.8115
  },
  "ANZ455": {
    "name": "Coastal waters from Cape Henlopen to Fenwick Island DE out 20 nm",
    "latitude": 38.5718,
    "longitude": -74.9103
  },
  "ANZ470": {
    "name": "Waters from Sandy Hook NJ to Manasquan Inlet NJ out 20 to 40 nm",
    "latitude": 40.0489,
    "longitude": -73.5601
  },
  "ANZ471": {
    "name": "Waters from Manasquan Inlet NJ to Little Egg Inlet NJ out 20 to 40 nm",
    "latitude": 39.6158,
    "longitude": -73.5842
  },
  "ANZ472": {
    "name": "Waters from Little Egg Inlet NJ to Great Egg Inlet NJ out 20 to 40 nm from 20 to 40 NM",
    "latitude": 39.1921,
    "longitude": -73.8296
  },
  "ANZ473": {
    "name": "Waters from Great Egg Inlet NJ to Cape May NJ out 20 to 40 nm",
    "latitude": 38.9156,
    "longitude": -74.1311
  },
  "ANZ475": {
    "name": "Waters from Cape May NJ to Fenwick Island DE out 20 to 40 nm",
    "latitude": 38.5248,
    "longitude": -74.4566
  },
  "ANZ530": {
    "name": "Chesapeake Bay north of Pooles Island MD",
    "latitude": 39.4243,
    "longitude": -76.0923
  },
  "ANZ531": {
    "name": "Chesapeake Bay from Pooles Island to Sandy Point MD",
    "latitude": 39.1806,
    "longitude": -76.3446
  },
  "ANZ532": {
    "name": "Chesapeake Bay from Sandy Point to North Beach MD",
    "latitude": 38.8506,
    "longitude": -76.4244
  },
  "ANZ533": {
    "name": "Chesapeake Bay from North Beach to Drum Point MD",
    "latitude": 38.5411,
    "longitude": -76.4061
  },
  "ANZ534": {
    "name": "Chesapeake Bay from Drum Point MD to Smith Point VA",
    "latitude": 38.1039,
    "longitude": -76.211
  },
  "ANZ535": {
    "name": "Tidal Potomac from Key Bridge to Indian Head MD",
    "latitude": 38.7406,
    "longitude": -77.0712
  },
  "ANZ536": {
    "name": "Tidal Potomac from Indian Head to Cobb Island MD",
    "latitude": 38.3931,
    "longitude": -77.1038
  },
  "ANZ537": {
    "name": "Tidal Potomac from Cobb Island MD to Smith Point VA",
    "latitude": 38.1024,
    "longitude": -76.5387
  },
  "ANZ538": {
    "name": "Patapsco River including Baltimore Harbor",
    "latitude": 39.2175,
    "longitude": -76.5275
  },
  "ANZ539": {
    "name": "Chester River to Queenstown MD",
    "latitude": 39.0433,
    "longitude": -76.2538
  },
  "ANZ540": {
    "name": "Eastern Bay",
    "latitude": 38.8694,
    "longitude": -76.273
  },
  "ANZ541": {
    "name": "Choptank River to Cambridge MD and the Little Choptank River",
    "latitude": 38.6262,
    "longitude": -76.2539
  },
  "ANZ542": {
    "name": "Patuxent River to Broomes Island MD",
    "latitude": 38.349,
    "longitude": -76.4853
  },
  "ANZ543": {
    "name": "Tangier Sound and the inland waters surrounding Bloodsworth Island",
    "latitude": 38.1393,
    "longitude": -75.9857
  },
  "ANZ630": {
    "name": "Chesapeake Bay from Smith Point to Windmill Point VA",
    "latitude": 37.7762,
    "longitude": -76.0145
  },
  "ANZ631": {
    "name": "Chesapeake Bay from Windmill Point to New Point Comfort VA",
    "latitude": 37.4761,
    "longitude": -76.1188
  },
  "ANZ632": {
    "name": "Chesapeake Bay from New Point Comfort to Little Creek VA",
    "latitude": 37.166,
    "longitude": -76.1946
  },
  "ANZ633": {
    "name": "Currituck Sound",
    "latitude": 36.4027,
    "longitude": -75.8972
  },
  "ANZ634": {
    "name": "Chesapeake Bay from Little Creek VA to Cape Henry VA including the Chesapeake Bay Bridge Tunnel",
    "latitude": 36.9944,
    "longitude": -76.0423
  },
  "ANZ635": {
    "name": "Rappahannock River from Urbanna to Windmill Point",
    "latitude": 37.6308,
    "longitude": -76.4456
  },
  "ANZ636": {
    "name": "York River",
    "latitude": 37.28,
    "longitude": -76.5272
  },
  "ANZ637": {
    "name": "James River from Jamestown to the James River Bridge",
    "latitude": 37.0976,
    "longitude": -76.6134
  },
  "ANZ638": {
    "name": "James River from James River Bridge to Hampton Roads Bridge-Tunnel",
    "latitude": 36.9562,
    "longitude": -76.4015
  },
  "ANZ650": {
    "name": "Coastal waters from Fenwick Island DE to Chincoteague VA out 20 nm",
    "latitude": 38.1864,
    "longitude": -75.0049
  },
  "ANZ652": {
    "name": "Coastal waters from Chincoteague to Parramore Island VA out 20 nm",
    "latitude": 37.7672,
    "longitude": -75.2921
  },
  "ANZ654": {
    "name": "Coastal waters from Parramore Island to Cape Charles Light VA out 20 nm",
    "latitude": 37.3045,
    "longitude": -75.6189
  },
  "ANZ656": {
    "name": "Coastal Waters from Cape Charles Light to Virginia-North Carolina border out to 20 nm",
    "latitude": 36.8189,
    "longitude": -75.7649
  },
  "ANZ658": {
    "name": "Coastal waters from NC VA border to Currituck Beach Light NC out 20 nm",
    "latitude": 36.3841,
    "longitude": -75.6477
  },
  "ANZ670": {
    "name": "Waters from Fenwick Island DE to Chintoteague VA from 20 to 40 nm",
    "latitude": 38.0858,
    "longitude": -74.6362
  },
  "ANZ672": {
    "name": "Waters from Chincoteague VA to Parramore Island VA from 20 to 40 nm",
    "latitude": 37.6513,
    "longitude": -74.9137
  },
  "ANZ674": {
    "name": "Waters from Parramore Island VA to Cape Charles Light VA from 20 to 40 nm",
    "latitude": 37.238,
    "longitude": -75.2147
  },
  "ANZ676": {
    "name": "Waters from Cape Charles Light to Virginia - North Carolina Border from 20 to 40 nm",
    "latitude": 36.7918,
    "longitude": -75.4012
  },
  "ANZ678": {
    "name": "Waters from NC VA border to Currituck Beach Light NC from 20 to 40 nm",
    "latitude": 36.3848,
    "longitude": -75.2854
  },
  "ARZ000": {
    "name": "Any County",
    "latitude": 0.0,
    "longitude": 0.0
  },
  "ARZ001": {
    "name": "Benton",
    "latitude": 36.3392,
    "longitude": -94.2573
  },
  "ARZ002": {
    "name": "Carroll",
    "latitude": 36.341,
    "longitude": -93.5382
  },
  "ARZ004": {
    "name": "Marion",
    "latitude": 36.2684,
    "longitude": -92.6842
  },
  "ARZ005": {
    "name": "Baxter",
    "latitude": 36.2872,
    "longitude": -92.337
  },
  "ARZ006": {
    "name": "Fulton",
    "latitude": 36.3817,
    "longitude": -91.8183
  },
  "ARZ007": {
    "name": "Sharp",
    "latitude": 36.1611,
    "longitude": -91.4799
  },
  "ARZ008": {
    "name": "Randolph",
    "latitude": 36.3415,
    "longitude": -91.0278
  },
  "ARZ009": {
    "name": "Clay",
    "latitude": 36.3685,
    "longitude": -90.4173
  },
  "ARZ010": {
    "name": "Washington",
    "latitude": 35.98,
    "longitude": -94.2147
  },
  "ARZ011": {
    "name": "Madison",
    "latitude": 36.011,
    "longitude": -93.7246
  },
  "ARZ014": {
    "name": "Stone",
    "latitude": 35.8599,
    "longitude": -92.1567
  },
  "ARZ015": {
    "name": "Izard",
    "latitude": 36.0949,
    "longitude": -91.9134
  },
  "ARZ016": {
    "name": "Independence",
    "latitude": 35.7415,
    "longitude": -91.5698
  },
  "ARZ017": {
    "name": "Lawrence",
    "latitude": 36.0413,
    "longitude": -91.1071
  },
  "ARZ018": {
    "name": "Greene",
    "latitude": 36.1177,
    "longitude": -90.5591
  },
  "ARZ019": {
    "name": "Crawford",
    "latitude": 35.5889,
    "longitude": -94.243
  },
  "ARZ020": {
    "name": "Franklin",
    "latitude": 35.5123,
    "longitude": -93.8906
  },
  "ARZ024": {
    "name": "Cleburne",
    "latitude": 35.5381,
    "longitude": -92.0267
  },
  "ARZ025": {
    "name": "Jackson",
    "latitude": 35.5994,
    "longitude": -91.2146
  },
  "ARZ026": {
    "name": "Craighead",
    "latitude": 35.8308,
    "longitude": -90.6328
  },
  "ARZ027": {
    "name": "Poinsett",
    "latitude": 35.574,
    "longitude": -90.6629
  },
  "ARZ028": {
    "name": "Mississippi",
    "latitude": 35.7639,
    "longitude": -90.054
  },
  "ARZ029": {
    "name": "Sebastian",
    "latitude": 35.1993,
    "longitude": -94.274
  },
  "ARZ031": {
    "name": "Conway",
    "latitude": 35.2622,
    "longitude": -92.7014
  },
  "ARZ032": {
    "name": "Faulkner",
    "latitude": 35.147,
    "longitude": -92.332
  },
  "ARZ033": {
    "name": "White",
    "latitude": 35.2563,
    "longitude": -91.7457
  },
  "ARZ034": {
    "name": "Woodruff",
    "latitude": 35.1863,
    "longitude": -91.2432
  },
  "ARZ035": {
    "name": "Cross",
    "latitude": 35.2958,
    "longitude": -90.7713
  },
  "ARZ036": {
    "name": "Crittenden",
    "latitude": 35.2079,
    "longitude": -90.3089
  },
  "ARZ039": {
    "name": "Perry",
    "latitude": 34.9474,
    "longitude": -92.9315
  },
  "ARZ042": {
    "name": "Garland",
    "latitude": 34.5767,
    "longitude": -93.1504
  },
  "ARZ043": {
    "name": "Saline",
    "latitude": 34.6466,
    "longitude": -92.6766
  },
  "ARZ044": {
    "name": "Pulaski",
    "latitude": 34.7699,
    "longitude": -92.3117
  },
  "ARZ045": {
    "name": "Lonoke",
    "latitude": 34.7542,
    "longitude": -91.8887
  },
  "ARZ046": {
    "name": "Prairie",
    "latitude": 34.8297,
    "longitude": -91.5528
  },
  "ARZ047": {
    "name": "Monroe",
    "latitude": 34.6778,
    "longitude": -91.2038
  },
  "ARZ048": {
    "name": "St. Francis",
    "latitude": 35.022,
    "longitude": -90.7478
  },
  "ARZ049": {
    "name": "Lee",
    "latitude": 34.7807,
    "longitude": -90.782
  },
  "ARZ050": {
    "name": "Sevier",
    "latitude": 33.9973,
    "longitude": -94.2412
  },
  "ARZ051": {
    "name": "Howard",
    "latitude": 34.0887,
    "longitude": -93.9935
  },
  "ARZ052": {
    "name": "Pike",
    "latitude": 34.1636,
    "longitude": -93.6564
  },
  "ARZ053": {
    "name": "Clark",
    "latitude": 34.051,
    "longitude": -93.1764
  },
  "ARZ054": {
    "name": "Hot Spring",
    "latitude": 34.3177,
    "longitude": -92.946
  },
  "ARZ055": {
    "name": "Grant",
    "latitude": 34.29,
    "longitude": -92.4236
  },
  "ARZ056": {
    "name": "Jefferson",
    "latitude": 34.2688,
    "longitude": -91.9315
  },
  "ARZ057": {
    "name": "Arkansas",
    "latitude": 34.2908,
    "longitude": -91.3749
  },
  "ARZ058": {
    "name": "Phillips",
    "latitude": 34.4283,
    "longitude": -90.848
  },
  "ARZ059": {
    "name": "Little River",
    "latitude": 33.7005,
    "longitude": -94.2343
  },
  "ARZ060": {
    "name": "Hempstead",
    "latitude": 33.7354,
    "longitude": -93.6684
  },
  "ARZ061": {
    "name": "Nevada",
    "latitude": 33.664,
    "longitude": -93.3072
  },
  "ARZ062": {
    "name": "Dallas",
    "latitude": 33.9698,
    "longitude": -92.6545
  },
  "ARZ063": {
    "name": "Cleveland",
    "latitude": 33.8983,
    "longitude": -92.1852
  },
  "ARZ064": {
    "name": "Lincoln",
    "latitude": 33.9575,
    "longitude": -91.7333
  },
  "ARZ065": {
    "name": "Desha",
    "latitude": 33.8333,
    "longitude": -91.254
  },
  "ARZ066": {
    "name": "Ouachita",
    "latitude": 33.5933,
    "longitude": -92.882
  },
  "ARZ067": {
    "name": "Calhoun",
    "latitude": 33.558,
    "longitude": -92.5031
  },
  "ARZ068": {
    "name": "Bradley",
    "latitude": 33.4659,
    "longitude": -92.1623
  },
  "ARZ069": {
    "name": "Drew",
    "latitude": 33.5895,
    "longitude": -91.72
  },
  "ARZ070": {
    "name": "Miller",
    "latitude": 33.3124,
    "longitude": -93.8918
  },
  "ARZ071": {
    "name": "Lafayette",
    "latitude": 33.2408,
    "longitude": -93.6073
  },
  "ARZ072": {
    "name": "Columbia",
    "latitude": 33.2143,
    "longitude": -93.2274
  },
  "ARZ073": {
    "name": "Union",
    "latitude": 33.1713,
    "longitude": -92.5973
  },
  "ARZ074": {
    "name": "Ashley",
    "latitude": 33.1912,
    "longitude": -91.7679
  },
  "ARZ075": {
    "name": "Chicot",
    "latitude": 33.2672,
    "longitude": -91.294
  },
  "ARZ103": {
    "name": "Boone County Except Southwest",
    "latitude": 36.3217,
    "longitude": -93.0755
  },
  "ARZ112": {
    "name": "Newton County Higher Elevations",
    "latitude": 35.8956,
    "longitude": -93.2439
  },
  "ARZ113": {
    "name": "Searcy County Lower Elevations",
    "latitude": 35.9775,
    "longitude": -92.7213
  },
  "ARZ121": {
    "name": "Southern Johnson County",
    "latitude": 35.4736,
    "longitude": -93.4744
  },
  "ARZ122": {
    "name": "Southern Pope County",
    "latitude": 35.3423,
    "longitude": -93.0596
  },
  "ARZ123": {
    "name": "Southeast Van Buren County",
    "latitude": 35.5067,
    "longitude": -92.4247
  },
  "ARZ130": {
    "name": "Western and Northern Logan County",
    "latitude": 35.2523,
    "longitude": -93.7455
  },
  "ARZ137": {
    "name": "Northern Scott County",
    "latitude": 34.9845,
    "longitude": -94.0579
  },
  "ARZ138": {
    "name": "Northwest Yell County",
    "latitude": 35.1143,
    "longitude": -93.5043
  },
  "ARZ140": {
    "name": "Polk County Lower Elevations",
    "latitude": 34.4133,
    "longitude": -94.3073
  },
  "ARZ141": {
    "name": "Central and Eastern Montgomery County",
    "latitude": 34.5241,
    "longitude": -93.6079
  },
  "ARZ203": {
    "name": "Boone County Higher Elevations",
    "latitude": 36.1834,
    "longitude": -93.2439
  },
  "ARZ212": {
    "name": "Newton County Lower Elevations",
    "latitude": 36.0553,
    "longitude": -93.0733
  },
  "ARZ213": {
    "name": "Northwest Searcy County Higher Elevations",
    "latitude": 36.0493,
    "longitude": -92.8685
  },
  "ARZ221": {
    "name": "Johnson County Higher Elevations",
    "latitude": 35.6552,
    "longitude": -93.4471
  },
  "ARZ222": {
    "name": "Pope County Higher Elevations",
    "latitude": 35.607,
    "longitude": -92.9956
  },
  "ARZ223": {
    "name": "Van Buren County Higher Elevations",
    "latitude": 35.6487,
    "longitude": -92.5994
  },
  "ARZ230": {
    "name": "Southern and Eastern Logan County",
    "latitude": 35.1586,
    "longitude": -93.6717
  },
  "ARZ237": {
    "name": "Central and Southern Scott County",
    "latitude": 34.8189,
    "longitude": -94.0651
  },
  "ARZ238": {
    "name": "Yell Excluding Northwest",
    "latitude": 34.9695,
    "longitude": -93.3837
  },
  "ARZ240": {
    "name": "Northern Polk County Higher Elevations",
    "latitude": 34.6452,
    "longitude": -94.2329
  },
  "ARZ241": {
    "name": "Northern Montgomery County Higher Elevations",
    "latitude": 34.6914,
    "longitude": -93.6775
  },
  "ARZ313": {
    "name": "Eastern Central and Southern Searcy County Higher Elevations",
    "latitude": 35.8697,
    "longitude": -92.6677
  },
  "ARZ340": {
    "name": "Southeast Polk County Higher Elevations",
    "latitude": 34.4489,
    "longitude": -94.1274
  },
  "ARZ341": {
    "name": "Southwest Montgomery County Higher Elevations",
    "latitude": 34.4197,
    "longitude": -93.8217
  },
  "ASZ000": {
    "name": "Any County",
    "latitude": 0.0,
    "longitude": 0.0
  },
  "ASZ001": {
    "name": "Tutuila and Aunuu",
    "latitude": -14.2995,
    "longitude": -170.7128
  },
  "ASZ002": {
    "name": "Manua",
    "latitude": -14.2219,
    "longitude": -169.506
  },
  "ASZ003": {
    "name": "Swains Island",
    "latitude": -11.0548,
    "longitude": -171.0802
  },
  "ASZ004": {
    "name": "Rose Atoll",
    "latitude": -14.5453,
    "longitude": -168.156
  },
  "AZZ000": {
    "name": "Any County",
    "latitude": 0.0,
    "longitude": 0.0
  },
  "AZZ001": {
    "name": "Northwest Plateau",
    "latitude": 36.5921,
    "longitude": -113.3317
  },
  "AZZ002": {
    "name": "Lake Havasu and Fort Mohave",
    "latitude": 34.6762,
    "longitude": -114.3492
  },
  "AZZ003": {
    "name": "Northwest Deserts",
    "latitude": 35.1839,
    "longitude": -113.848
  },
  "AZZ004": {
    "name": "Kaibab Plateau",
    "latitude": 36.6514,
    "longitude": -112.2018
  },
  "AZZ005": {
    "name": "Marble and Glen Canyons",
    "latitude": 36.7777,
    "longitude": -111.6681
  },
  "AZZ006": {
    "name": "Grand Canyon Country",
    "latitude": 36.184,
    "longitude": -112.3183
  },
  "AZZ007": {
    "name": "Coconino Plateau",
    "latitude": 35.7341,
    "longitude": -112.5569
  },
  "AZZ008": {
    "name": "Yavapai County Mountains",
    "latitude": 34.8361,
    "longitude": -112.6554
  },
  "AZZ009": {
    "name": "Northeast Plateaus and Mesas Hwy 264 Northward",
    "latitude": 36.4046,
    "longitude": -110.9711
  },
  "AZZ010": {
    "name": "Chinle Valley",
    "latitude": 36.5404,
    "longitude": -109.7068
  },
  "AZZ011": {
    "name": "Chuska Mountains and Defiance Plateau",
    "latitude": 35.8693,
    "longitude": -109.2344
  },
  "AZZ012": {
    "name": "Little Colorado River Valley in Coconino County",
    "latitude": 35.4788,
    "longitude": -111.1876
  },
  "AZZ013": {
    "name": "Little Colorado River Valley in Navajo County",
    "latitude": 34.844,
    "longitude": -110.3127
  },
  "AZZ014": {
    "name": "Little Colorado River Valley in Apache County",
    "latitude": 34.5768,
    "longitude": -109.4198
  },
  "AZZ015": {
    "name": "Western Mogollon Rim",
    "latitude": 35.2296,
    "longitude": -111.7689
  },
  "AZZ016": {
    "name": "Eastern Mogollon Rim",
    "latitude": 34.4418,
    "longitude": -110.8122
  },
  "AZZ017": {
    "name": "White Mountains",
    "latitude": 33.9272,
    "longitude": -109.6483
  },
  "AZZ018": {
    "name": "Northern Gila County",
    "latitude": 34.0401,
    "longitude": -110.9225
  },
  "AZZ036": {
    "name": "Lake Mead National Recreation Area",
    "latitude": 35.8011,
    "longitude": -114.3194
  },
  "AZZ037": {
    "name": "Yavapai County Valleys and Basins",
    "latitude": 34.4302,
    "longitude": -112.5126
  },
  "AZZ038": {
    "name": "Oak Creek and Sycamore Canyons",
    "latitude": 34.9117,
    "longitude": -111.8796
  },
  "AZZ039": {
    "name": "Black Mesa Area",
    "latitude": 36.355,
    "longitude": -110.2429
  },
  "AZZ040": {
    "name": "Northeast Plateaus and Mesas South of Hwy 264",
    "latitude": 35.4889,
    "longitude": -110.1825
  },
  "AZZ501": {
    "name": "Western Pima County Including Ajo/Organ Pipe Cactus National Monument",
    "latitude": 32.2167,
    "longitude": -112.9766
  },
  "AZZ502": {
    "name": "Tohono O'odham Nation including Sells",
    "latitude": 32.1434,
    "longitude": -112.064
  },
  "AZZ503": {
    "name": "Upper Santa Cruz River and Altar Valleys including Nogales",
    "latitude": 31.6207,
    "longitude": -111.163
  },
  "AZZ504": {
    "name": "Tucson Metro Area including Tucson/Green Valley/Marana/Vail",
    "latitude": 32.1761,
    "longitude": -111.0565
  },
  "AZZ505": {
    "name": "South Central Pinal County including Eloy/Picacho Peak State Park",
    "latitude": 32.7452,
    "longitude": -111.3393
  },
  "AZZ506": {
    "name": "Southeast Pinal County including Kearny/Mammoth/Oracle",
    "latitude": 32.8255,
    "longitude": -110.7518
  },
  "AZZ507": {
    "name": "Upper San Pedro River Valley including Sierra Vista/Benson",
    "latitude": 31.9331,
    "longitude": -110.3073
  },
  "AZZ508": {
    "name": "Eastern Cochise County Below 5000 Feet including Douglas/Willcox",
    "latitude": 31.9147,
    "longitude": -109.5452
  },
  "AZZ509": {
    "name": "Upper Gila River and Aravaipa Valleys including Clifton/Safford",
    "latitude": 32.8686,
    "longitude": -109.7443
  },
  "AZZ510": {
    "name": "White Mountains of Graham and Greenlee Counties including Hannagan Meadow",
    "latitude": 33.3867,
    "longitude": -109.4881
  },
  "AZZ511": {
    "name": "Galiuro and Pinaleno Mountains including Mount Graham",
    "latitude": 32.6525,
    "longitude": -110.1153
  },
  "AZZ512": {
    "name": "Chiricahua Mountains including Chiricahua National Monument",
    "latitude": 31.8616,
    "longitude": -109.356
  },
  "AZZ513": {
    "name": "Dragoon/Mule/Huachuca and Santa Rita Mountains including Bisbee/Canelo Hills/Madera Canyon",
    "latitude": 31.6043,
    "longitude": -110.3833
  },
  "AZZ514": {
    "name": "Santa Catalina and Rincon Mountains including Mount Lemmon/Summerhaven",
    "latitude": 32.3364,
    "longitude": -110.6808
  },
  "AZZ515": {
    "name": "Baboquivari Mountains including Kitt Peak",
    "latitude": 31.8186,
    "longitude": -111.5931
  },
  "AZZ530": {
    "name": "Parker Valley",
    "latitude": 33.6989,
    "longitude": -114.4568
  },
  "AZZ531": {
    "name": "Kofa",
    "latitude": 33.2172,
    "longitude": -114.028
  },
  "AZZ532": {
    "name": "Yuma",
    "latitude": 32.6544,
    "longitude": -114.5114
  },
  "AZZ533": {
    "name": "Central La Paz",
    "latitude": 33.8116,
    "longitude": -113.8131
  },
  "AZZ534": {
    "name": "Aguila Valley",
    "latitude": 33.8662,
    "longitude": -112.9785
  },
  "AZZ535": {
    "name": "Southeast Yuma County",
    "latitude": 32.3859,
    "longitude": -113.7573
  },
  "AZZ536": {
    "name": "Gila River Valley",
    "latitude": 32.8221,
    "longitude": -113.804
  },
  "AZZ537": {
    "name": "Northwest Valley",
    "latitude": 33.7421,
    "longitude": -112.477
  },
  "AZZ538": {
    "name": "Tonopah Desert",
    "latitude": 33.3971,
    "longitude": -112.9704
  },
  "AZZ539": {
    "name": "Gila Bend",
    "latitude": 32.8542,
    "longitude": -113.0566
  },
  "AZZ540": {
    "name": "Buckeye/Avondale",
    "latitude": 33.3912,
    "longitude": -112.4004
  },
  "AZZ541": {
    "name": "Cave Creek/New River",
    "latitude": 33.8086,
    "longitude": -112.0129
  },
  "AZZ542": {
    "name": "Deer Valley",
    "latitude": 33.7122,
    "longitude": -112.1301
  },
  "AZZ543": {
    "name": "Central Phoenix",
    "latitude": 33.4331,
    "longitude": -112.0552
  },
  "AZZ544": {
    "name": "North Phoenix/Glendale",
    "latitude": 33.5716,
    "longitude": -112.1525
  },
  "AZZ545": {
    "name": "New River Mesa",
    "latitude": 33.926,
    "longitude": -111.8887
  },
  "AZZ546": {
    "name": "Scottsdale/Paradise Valley",
    "latitude": 33.5351,
    "longitude": -111.8891
  },
  "AZZ547": {
    "name": "Rio Verde/Salt River",
    "latitude": 33.7012,
    "longitude": -111.51
  },
  "AZZ548": {
    "name": "East Valley",
    "latitude": 33.3765,
    "longitude": -111.8134
  },
  "AZZ549": {
    "name": "Fountain Hills/East Mesa",
    "latitude": 33.5349,
    "longitude": -111.6592
  },
  "AZZ550": {
    "name": "South Mountain/Ahwatukee",
    "latitude": 33.2829,
    "longitude": -112.0449
  },
  "AZZ551": {
    "name": "Southeast Valley/Queen Creek",
    "latitude": 33.2616,
    "longitude": -111.7353
  },
  "AZZ552": {
    "name": "Superior",
    "latitude": 33.2702,
    "longitude": -111.188
  },
  "AZZ553": {
    "name": "Northwest Pinal County",
    "latitude": 33.0209,
    "longitude": -111.7511
  },
  "AZZ554": {
    "name": "West Pinal County",
    "latitude": 32.8658,
    "longitude": -112.1203
  },
  "AZZ555": {
    "name": "Apache Junction/Gold Canyon",
    "latitude": 33.2584,
    "longitude": -111.3827
  },
  "AZZ556": {
    "name": "Tonto Basin",
    "latitude": 33.7079,
    "longitude": -111.1275
  },
  "AZZ557": {
    "name": "Mazatzal Mountains",
    "latitude": 33.8233,
    "longitude": -111.4206
  },
  "AZZ558": {
    "name": "Pinal/Superstition Mountains",
    "latitude": 33.3639,
    "longitude": -110.9698
  },
  "AZZ559": {
    "name": "Sonoran Desert Natl Monument",
    "latitude": 32.802,
    "longitude": -112.5235
  },
  "AZZ560": {
    "name": "San Carlos",
    "latitude": 33.3416,
    "longitude": -110.532
  },
  "AZZ561": {
    "name": "Dripping Springs",
    "latitude": 33.102,
    "longitude": -110.7853
  },
  "AZZ562": {
    "name": "Globe/Miami",
    "latitude": 33.4344,
    "longitude": -110.8175
  },
  "AZZ563": {
    "name": "Southeast Gila County",
    "latitude": 33.6107,
    "longitude": -110.4548
  },
  "CAZ000": {
    "name": "Any County",
    "latitude": 0.0,
    "longitude": 0.0
  },
  "CAZ006": {
    "name": "San Francisco",
    "latitude": 37.7558,
    "longitude": -122.4424
  },
  "CAZ013": {
    "name": "Shasta Lake Area / Northern Shasta County",
    "latitude": 40.9299,
    "longitude": -122.2247
  },
  "CAZ014": {
    "name": "Burney Basin / Eastern Shasta County",
    "latitude": 40.9423,
    "longitude": -121.4882
  },
  "CAZ015": {
    "name": "Northern Sacramento Valley",
    "latitude": 40.2198,
    "longitude": -122.2949
  },
  "CAZ016": {
    "name": "Central Sacramento Valley",
    "latitude": 39.3764,
    "longitude": -121.926
  },
  "CAZ017": {
    "name": "Southern Sacramento Valley",
    "latitude": 38.6268,
    "longitude": -121.5626
  },
  "CAZ018": {
    "name": "Carquinez Strait and Delta",
    "latitude": 38.1433,
    "longitude": -121.7622
  },
  "CAZ019": {
    "name": "Northern San Joaquin Valley",
    "latitude": 37.7581,
    "longitude": -121.041
  },
  "CAZ038": {
    "name": "Cuyama Valley",
    "latitude": 34.9422,
    "longitude": -119.7374
  },
  "CAZ043": {
    "name": "San Diego County Coastal Areas",
    "latitude": 32.9298,
    "longitude": -117.2007
  },
  "CAZ048": {
    "name": "San Bernardino and Riverside County Valleys-The Inland Empire",
    "latitude": 33.8468,
    "longitude": -117.2517
  },
  "CAZ050": {
    "name": "San Diego County Inland Valleys",
    "latitude": 33.0253,
    "longitude": -116.9615
  },
  "CAZ055": {
    "name": "San Bernardino County Mountains",
    "latitude": 34.2094,
    "longitude": -117.0606
  },
  "CAZ056": {
    "name": "Riverside County Mountains",
    "latitude": 33.6162,
    "longitude": -116.6251
  },
  "CAZ057": {
    "name": "Santa Ana Mountains and Foothills",
    "latitude": 33.6273,
    "longitude": -117.4605
  },
  "CAZ058": {
    "name": "San Diego County Mountains",
    "latitude": 33.0415,
    "longitude": -116.5618
  },
  "CAZ060": {
    "name": "Apple and Lucerne Valleys",
    "latitude": 34.5432,
    "longitude": -117.0201
  },
  "CAZ061": {
    "name": "Coachella Valley",
    "latitude": 33.6887,
    "longitude": -116.2371
  },
  "CAZ062": {
    "name": "San Diego County Deserts",
    "latitude": 33.0924,
    "longitude": -116.2679
  },
  "CAZ063": {
    "name": "Mountains Southwestern Shasta County to Western Colusa County",
    "latitude": 39.8484,
    "longitude": -122.7033
  },
  "CAZ065": {
    "name": "San Gorgonio Pass Near Banning",
    "latitude": 33.9303,
    "longitude": -116.613
  },
  "CAZ066": {
    "name": "Northeast Foothills/Sacramento Valley",
    "latitude": 40.1117,
    "longitude": -121.7566
  },
  "CAZ067": {
    "name": "Motherlode",
    "latitude": 38.6192,
    "longitude": -120.7698
  },
  "CAZ068": {
    "name": "Western Plumas County/Lassen Park",
    "latitude": 40.1971,
    "longitude": -121.3501
  },
  "CAZ069": {
    "name": "West Slope Northern Sierra Nevada",
    "latitude": 38.7829,
    "longitude": -120.3423
  },
  "CAZ070": {
    "name": "Surprise Valley California",
    "latitude": 41.6116,
    "longitude": -120.0862
  },
  "CAZ071": {
    "name": "Lassen-Eastern Plumas-Eastern Sierra Counties",
    "latitude": 40.466,
    "longitude": -120.5471
  },
  "CAZ072": {
    "name": "Greater Lake Tahoe Area",
    "latitude": 38.9481,
    "longitude": -119.9683
  },
  "CAZ073": {
    "name": "Mono",
    "latitude": 37.939,
    "longitude": -118.8867
  },
  "CAZ080": {
    "name": "Western Siskiyou County",
    "latitude": 41.5562,
    "longitude": -123.164
  },
  "CAZ081": {
    "name": "Central Siskiyou County",
    "latitude": 41.7362,
    "longitude": -122.5631
  },
  "CAZ082": {
    "name": "South Central Siskiyou County",
    "latitude": 41.2704,
    "longitude": -122.1846
  },
  "CAZ083": {
    "name": "North Central and Southeast Siskiyou County",
    "latitude": 41.5425,
    "longitude": -121.8968
  },
  "CAZ084": {
    "name": "Northeast Siskiyou and Northwest Modoc Counties",
    "latitude": 41.8639,
    "longitude": -121.6371
  },
  "CAZ085": {
    "name": "Modoc County",
    "latitude": 41.5611,
    "longitude": -120.7585
  },
  "CAZ087": {
    "name": "Catalina and Santa Barbara Islands",
    "latitude": 33.3833,
    "longitude": -118.4412
  },
  "CAZ088": {
    "name": "Santa Clarita Valley",
    "latitude": 34.4534,
    "longitude": -118.5579
  },
  "CAZ101": {
    "name": "Coastal Del Norte",
    "latitude": 41.7364,
    "longitude": -124.1146
  },
  "CAZ102": {
    "name": "Del Norte Interior",
    "latitude": 41.7446,
    "longitude": -123.8512
  },
  "CAZ103": {
    "name": "Northern Humboldt Coast",
    "latitude": 40.8104,
    "longitude": -124.1211
  },
  "CAZ104": {
    "name": "Southwestern Humboldt",
    "latitude": 40.2708,
    "longitude": -124.1428
  },
  "CAZ105": {
    "name": "Northern Humboldt Interior",
    "latitude": 41.1031,
    "longitude": -123.7436
  },
  "CAZ106": {
    "name": "Southern Humboldt Interior",
    "latitude": 40.4135,
    "longitude": -123.7949
  },
  "CAZ107": {
    "name": "Northern Trinity",
    "latitude": 40.9086,
    "longitude": -122.9759
  },
  "CAZ108": {
    "name": "Southern Trinity",
    "latitude": 40.3374,
    "longitude": -123.2788
  },
  "CAZ109": {
    "name": "Mendocino Coast",
    "latitude": 39.3778,
    "longitude": -123.7271
  },
  "CAZ110": {
    "name": "Northwestern Mendocino Interior",
    "latitude": 39.6359,
    "longitude": -123.4371
  },
  "CAZ111": {
    "name": "Northeastern Mendocino Interior",
    "latitude": 39.7603,
    "longitude": -123.1396
  },
  "CAZ112": {
    "name": "Southwestern Mendocino Interior",
    "latitude": 39.1561,
    "longitude": -123.4915
  },
  "CAZ113": {
    "name": "Southeastern Mendocino Interior",
    "latitude": 39.0904,
    "longitude": -123.1953
  },
  "CAZ114": {
    "name": "Northern Lake County",
    "latitude": 39.3619,
    "longitude": -122.8628
  },
  "CAZ115": {
    "name": "Southern Lake County",
    "latitude": 38.9779,
    "longitude": -122.7022
  },
  "CAZ300": {
    "name": "West Side Mountains north of 198",
    "latitude": 36.6593,
    "longitude": -120.7869
  },
  "CAZ301": {
    "name": "Los Banos - Dos Palos",
    "latitude": 36.9125,
    "longitude": -120.7212
  },
  "CAZ302": {
    "name": "Merced - Madera - Mendota",
    "latitude": 37.0903,
    "longitude": -120.4536
  },
  "CAZ303": {
    "name": "Planada - Le Grand - Snelling",
    "latitude": 37.2577,
    "longitude": -120.193
  },
  "CAZ304": {
    "name": "Coalinga - Avenal",
    "latitude": 36.0678,
    "longitude": -120.1879
  },
  "CAZ305": {
    "name": "West Side of Fresno and Kings Counties",
    "latitude": 36.287,
    "longitude": -120.1034
  },
  "CAZ306": {
    "name": "Caruthers - San Joaquin - Selma",
    "latitude": 36.5869,
    "longitude": -119.8953
  },
  "CAZ307": {
    "name": "Fresno-Clovis",
    "latitude": 36.7953,
    "longitude": -119.7342
  },
  "CAZ308": {
    "name": "West Side Mountains South of 198",
    "latitude": 35.6837,
    "longitude": -120.0363
  },
  "CAZ309": {
    "name": "Buttonwillow - Lost Hills - I5",
    "latitude": 35.6098,
    "longitude": -119.6082
  },
  "CAZ310": {
    "name": "Delano-Wasco-Shafter",
    "latitude": 35.7752,
    "longitude": -119.3702
  },
  "CAZ311": {
    "name": "Hanford - Corcoran - Lemoore",
    "latitude": 36.226,
    "longitude": -119.5882
  },
  "CAZ312": {
    "name": "Visalia - Porterville - Reedley",
    "latitude": 36.3626,
    "longitude": -119.2605
  },
  "CAZ313": {
    "name": "Buena Vista",
    "latitude": 35.2078,
    "longitude": -119.4499
  },
  "CAZ314": {
    "name": "Bakersfield",
    "latitude": 35.3612,
    "longitude": -119.0216
  },
  "CAZ315": {
    "name": "Southeast San Joaquin Valley",
    "latitude": 35.7755,
    "longitude": -119.0391
  },
  "CAZ316": {
    "name": "South End San Joaquin Valley",
    "latitude": 35.1382,
    "longitude": -118.9898
  },
  "CAZ317": {
    "name": "Mariposa Madera Foothills",
    "latitude": 37.3511,
    "longitude": -119.9965
  },
  "CAZ318": {
    "name": "Mariposa-Madera Lower Sierra",
    "latitude": 37.4854,
    "longitude": -119.8078
  },
  "CAZ319": {
    "name": "Fresno-Tulare Foothills",
    "latitude": 36.607,
    "longitude": -119.2012
  },
  "CAZ320": {
    "name": "Fresno-Tulare Lower Sierra",
    "latitude": 36.837,
    "longitude": -119.1509
  },
  "CAZ321": {
    "name": "South End Sierra Foothills",
    "latitude": 35.7347,
    "longitude": -118.88
  },
  "CAZ322": {
    "name": "South End of the Lower Sierra",
    "latitude": 35.9436,
    "longitude": -118.7513
  },
  "CAZ323": {
    "name": "Yosemite NP outside of the valley",
    "latitude": 37.8529,
    "longitude": -119.553
  },
  "CAZ324": {
    "name": "Yosemite Valley",
    "latitude": 37.7184,
    "longitude": -119.662
  },
  "CAZ325": {
    "name": "San Joaquin River Canyon",
    "latitude": 37.3286,
    "longitude": -119.3176
  },
  "CAZ326": {
    "name": "Upper San Joaquin River",
    "latitude": 37.4492,
    "longitude": -119.1195
  },
  "CAZ327": {
    "name": "Kaiser to Rodgers Ridge",
    "latitude": 37.1044,
    "longitude": -119.0287
  },
  "CAZ328": {
    "name": "Kings Canyon NP",
    "latitude": 36.899,
    "longitude": -118.5876
  },
  "CAZ329": {
    "name": "Grant Grove Area",
    "latitude": 36.7902,
    "longitude": -118.8599
  },
  "CAZ330": {
    "name": "Sequoia NP",
    "latitude": 36.5082,
    "longitude": -118.575
  },
  "CAZ331": {
    "name": "South End of the Upper Sierra",
    "latitude": 36.0209,
    "longitude": -118.3399
  },
  "CAZ332": {
    "name": "Kern River Valley",
    "latitude": 35.6428,
    "longitude": -118.4122
  },
  "CAZ333": {
    "name": "Piute Walker Basin",
    "latitude": 35.4383,
    "longitude": -118.4292
  },
  "CAZ334": {
    "name": "Tehachapi",
    "latitude": 35.1324,
    "longitude": -118.5472
  },
  "CAZ335": {
    "name": "Grapevine",
    "latitude": 34.8909,
    "longitude": -118.9043
  },
  "CAZ336": {
    "name": "Frazier Mountain Communities",
    "latitude": 34.9239,
    "longitude": -119.1812
  },
  "CAZ337": {
    "name": "Indian Wells Valley",
    "latitude": 35.6195,
    "longitude": -117.7591
  },
  "CAZ338": {
    "name": "Mojave Desert Slopes",
    "latitude": 35.2364,
    "longitude": -118.1893
  },
  "CAZ339": {
    "name": "Mojave Desert",
    "latitude": 35.0734,
    "longitude": -117.9052
  },
  "CAZ340": {
    "name": "San Luis Obispo County Beaches",
    "latitude": 35.3656,
    "longitude": -120.8857
  },
  "CAZ341": {
    "name": "San Luis Obispo County Inland Central Coast",
    "latitude": 35.1214,
    "longitude": -120.5471
  },
  "CAZ342": {
    "name": "Santa Lucia Mountains",
    "latitude": 35.4597,
    "longitude": -120.795
  },
  "CAZ343": {
    "name": "Southern Salinas Valley",
    "latitude": 35.6395,
    "longitude": -120.7122
  },
  "CAZ344": {
    "name": "San Luis Obispo County Interior Valleys",
    "latitude": 35.4405,
    "longitude": -120.1532
  },
  "CAZ345": {
    "name": "San Luis Obispo County Mountains",
    "latitude": 35.1768,
    "longitude": -120.1048
  },
  "CAZ346": {
    "name": "Santa Barbara County Central Coast Beaches",
    "latitude": 34.7179,
    "longitude": -120.5534
  },
  "CAZ347": {
    "name": "Santa Barbara County Inland Central Coast",
    "latitude": 34.7553,
    "longitude": -120.3762
  },
  "CAZ348": {
    "name": "Santa Ynez Valley",
    "latitude": 34.6908,
    "longitude": -120.0988
  },
  "CAZ349": {
    "name": "Santa Barbara County Southwestern Coast",
    "latitude": 34.5052,
    "longitude": -120.3013
  },
  "CAZ350": {
    "name": "Santa Barbara County Southeastern Coast",
    "latitude": 34.4344,
    "longitude": -119.7142
  },
  "CAZ351": {
    "name": "Santa Ynez Mountains Western Range",
    "latitude": 34.5164,
    "longitude": -119.9838
  },
  "CAZ352": {
    "name": "Santa Ynez Mountains Eastern Range",
    "latitude": 34.4707,
    "longitude": -119.548
  },
  "CAZ353": {
    "name": "Santa Barbara County Interior Mountains",
    "latitude": 34.7747,
    "longitude": -119.823
  },
  "CAZ354": {
    "name": "Ventura County Beaches",
    "latitude": 34.2116,
    "longitude": -119.2077
  },
  "CAZ355": {
    "name": "Ventura County Inland Coast",
    "latitude": 34.2366,
    "longitude": -119.0715
  },
  "CAZ356": {
    "name": "Lake Casitas",
    "latitude": 34.4011,
    "longitude": -119.3447
  },
  "CAZ357": {
    "name": "Ojai Valley",
    "latitude": 34.4268,
    "longitude": -119.2615
  },
  "CAZ358": {
    "name": "Central Ventura County Valleys",
    "latitude": 34.3897,
    "longitude": -119.0367
  },
  "CAZ362": {
    "name": "Malibu Coast",
    "latitude": 34.0408,
    "longitude": -118.6777
  },
  "CAZ366": {
    "name": "Los Angeles County Beaches",
    "latitude": 33.8457,
    "longitude": -118.3308
  },
  "CAZ367": {
    "name": "Palos Verdes Hills",
    "latitude": 33.7652,
    "longitude": -118.3624
  },
  "CAZ368": {
    "name": "Los Angeles County Inland Coast including Downtown Los Angeles",
    "latitude": 33.9486,
    "longitude": -118.2407
  },
  "CAZ369": {
    "name": "Western Santa Monica Mountains Recreational Area",
    "latitude": 34.0907,
    "longitude": -118.889
  },
  "CAZ370": {
    "name": "Eastern Santa Monica Mountains Recreational Area",
    "latitude": 34.0938,
    "longitude": -118.5622
  },
  "CAZ371": {
    "name": "Calabasas and Agoura Hills",
    "latitude": 34.1299,
    "longitude": -118.7423
  },
  "CAZ372": {
    "name": "Western San Fernando Valley",
    "latitude": 34.2249,
    "longitude": -118.5083
  },
  "CAZ373": {
    "name": "Eastern San Fernando Valley",
    "latitude": 34.1898,
    "longitude": -118.2987
  },
  "CAZ374": {
    "name": "Southeastern Ventura County Valleys",
    "latitude": 34.2322,
    "longitude": -118.8394
  },
  "CAZ375": {
    "name": "Santa Susana Mountains",
    "latitude": 34.3387,
    "longitude": -118.7386
  },
  "CAZ376": {
    "name": "Southern Ventura County Mountains",
    "latitude": 34.543,
    "longitude": -119.0936
  },
  "CAZ377": {
    "name": "Northern Ventura County Mountains",
    "latitude": 34.7342,
    "longitude": -119.1611
  },
  "CAZ378": {
    "name": "Interstate 5 Corridor",
    "latitude": 34.6716,
    "longitude": -118.7273
  },
  "CAZ379": {
    "name": "Western San Gabriel Mountains and Highway 14 Corridor",
    "latitude": 34.4617,
    "longitude": -118.2964
  },
  "CAZ380": {
    "name": "Eastern San Gabriel Mountains",
    "latitude": 34.2905,
    "longitude": -117.8806
  },
  "CAZ381": {
    "name": "Western Antelope Valley Foothills",
    "latitude": 34.6494,
    "longitude": -118.3779
  },
  "CAZ382": {
    "name": "Eastern Antelope Valley Foothills",
    "latitude": 34.4909,
    "longitude": -117.8141
  },
  "CAZ383": {
    "name": "Antelope Valley",
    "latitude": 34.7001,
    "longitude": -118.0482
  },
  "CAZ502": {
    "name": "Marin Coastal Range",
    "latitude": 38.0602,
    "longitude": -122.6859
  },
  "CAZ503": {
    "name": "Sonoma Coastal Range",
    "latitude": 38.6598,
    "longitude": -123.1621
  },
  "CAZ504": {
    "name": "North Bay Interior Mountains",
    "latitude": 38.5823,
    "longitude": -122.4433
  },
  "CAZ505": {
    "name": "Coastal North Bay Including Point Reyes National Seashore",
    "latitude": 38.2364,
    "longitude": -122.9543
  },
  "CAZ506": {
    "name": "North Bay Interior Valleys",
    "latitude": 38.3698,
    "longitude": -122.6419
  },
  "CAZ508": {
    "name": "San Francisco Bay Shoreline",
    "latitude": 37.5938,
    "longitude": -122.165
  },
  "CAZ509": {
    "name": "San Francisco Peninsula Coast",
    "latitude": 37.374,
    "longitude": -122.3923
  },
  "CAZ510": {
    "name": "East Bay Interior Valleys",
    "latitude": 37.8804,
    "longitude": -121.8801
  },
  "CAZ512": {
    "name": "Santa Cruz Mountains",
    "latitude": 37.1726,
    "longitude": -122.04
  },
  "CAZ513": {
    "name": "Santa Clara Valley Including San Jose",
    "latitude": 37.2196,
    "longitude": -121.7971
  },
  "CAZ514": {
    "name": "Eastern Santa Clara Hills",
    "latitude": 37.243,
    "longitude": -121.5277
  },
  "CAZ515": {
    "name": "East Bay Hills",
    "latitude": 37.7045,
    "longitude": -121.8201
  },
  "CAZ516": {
    "name": "Southern Salinas Valley/Arroyo Seco and Lake San Antonio",
    "latitude": 36.1014,
    "longitude": -121.0546
  },
  "CAZ517": {
    "name": "Santa Lucia Mountains and Los Padres National Forest",
    "latitude": 36.1606,
    "longitude": -121.4188
  },
  "CAZ518": {
    "name": "Mountains Of San Benito County And Interior Monterey County Including Pinnacles National Park",
    "latitude": 36.3718,
    "longitude": -120.9214
  },
  "CAZ519": {
    "name": "Eastern Sierra Slopes of Inyo County",
    "latitude": 36.8269,
    "longitude": -118.341
  },
  "CAZ520": {
    "name": "Owens Valley",
    "latitude": 36.5133,
    "longitude": -118.0127
  },
  "CAZ521": {
    "name": "White Mountains of Inyo County",
    "latitude": 37.0104,
    "longitude": -118.0388
  },
  "CAZ522": {
    "name": "Death Valley National Park",
    "latitude": 36.4199,
    "longitude": -117.1006
  },
  "CAZ523": {
    "name": "Western Mojave Desert",
    "latitude": 35.3053,
    "longitude": -117.0005
  },
  "CAZ524": {
    "name": "Eastern Mojave Desert Including the Mojave National Preserve",
    "latitude": 35.1398,
    "longitude": -115.7069
  },
  "CAZ525": {
    "name": "Morongo Basin",
    "latitude": 34.3424,
    "longitude": -116.0948
  },
  "CAZ526": {
    "name": "Cadiz Basin",
    "latitude": 34.3849,
    "longitude": -115.0956
  },
  "CAZ527": {
    "name": "San Bernardino County-Upper Colorado River Valley",
    "latitude": 34.4988,
    "longitude": -114.5011
  },
  "CAZ528": {
    "name": "Northern Salinas Valley/Hollister Valley and Carmel Valley",
    "latitude": 36.6769,
    "longitude": -121.5047
  },
  "CAZ529": {
    "name": "Northern Monterey Bay",
    "latitude": 36.9757,
    "longitude": -121.9005
  },
  "CAZ530": {
    "name": "Southern Monterey Bay and Big Sur Coast",
    "latitude": 36.6165,
    "longitude": -121.7566
  },
  "CAZ548": {
    "name": "Los Angeles County San Gabriel Valley",
    "latitude": 34.0657,
    "longitude": -117.9738
  },
  "CAZ549": {
    "name": "San Miguel and Santa Rosa Islands",
    "latitude": 33.9774,
    "longitude": -120.1462
  },
  "CAZ550": {
    "name": "Santa Cruz and Anacapa Islands",
    "latitude": 34.0138,
    "longitude": -119.7416
  },
  "CAZ552": {
    "name": "Orange County Coastal",
    "latitude": 33.6191,
    "longitude": -117.8648
  },
  "CAZ554": {
    "name": "Orange County Inland",
    "latitude": 33.7234,
    "longitude": -117.7705
  },
  "CAZ560": {
    "name": "Joshua Tree NP West",
    "latitude": 33.9359,
    "longitude": -116.0848
  },
  "CAZ561": {
    "name": "Joshua Tree NP East",
    "latitude": 33.9563,
    "longitude": -115.6534
  },
  "CAZ562": {
    "name": "Imperial County Southwest",
    "latitude": 32.8129,
    "longitude": -116.039
  },
  "CAZ563": {
    "name": "Salton Sea",
    "latitude": 33.3091,
    "longitude": -115.8096
  },
  "CAZ564": {
    "name": "Chuckwalla Mountains",
    "latitude": 33.3715,
    "longitude": -115.2724
  },
  "CAZ565": {
    "name": "Imperial County Southeast",
    "latitude": 32.886,
    "longitude": -114.9902
  },
  "CAZ566": {
    "name": "Imperial County West",
    "latitude": 32.9909,
    "longitude": -115.9008
  },
  "CAZ567": {
    "name": "Imperial Valley",
    "latitude": 32.9245,
    "longitude": -115.5185
  },
  "CAZ568": {
    "name": "Chiriaco Summit",
    "latitude": 33.6785,
    "longitude": -115.6832
  },
  "CAZ569": {
    "name": "Palo Verde Valley",
    "latitude": 33.4256,
    "longitude": -114.6527
  },
  "CAZ570": {
    "name": "Chuckwalla Valley",
    "latitude": 33.8125,
    "longitude": -115.0182
  },
  "COZ000": {
    "name": "Any County",
    "latitude": 0.0,
    "longitude": 0.0
  },
  "COZ001": {
    "name": "Lower Yampa River Basin",
    "latitude": 40.444,
    "longitude": -108.6994
  },
  "COZ002": {
    "name": "Central Yampa River Basin",
    "latitude": 40.4046,
    "longitude": -107.9134
  },
  "COZ003": {
    "name": "Roan and Tavaputs Plateaus",
    "latitude": 39.5758,
    "longitude": -108.4376
  },
  "COZ004": {
    "name": "Elkhead and Park Mountains",
    "latitude": 40.5653,
    "longitude": -106.9552
  },
  "COZ005": {
    "name": "Upper Yampa River Basin",
    "latitude": 40.3902,
    "longitude": -106.9616
  },
  "COZ006": {
    "name": "Grand Valley",
    "latitude": 39.1541,
    "longitude": -108.6809
  },
  "COZ007": {
    "name": "Debeque to Silt Corridor",
    "latitude": 39.4422,
    "longitude": -107.9773
  },
  "COZ008": {
    "name": "Central Colorado River Basin",
    "latitude": 39.6286,
    "longitude": -107.0292
  },
  "COZ009": {
    "name": "Grand and Battlement Mesas",
    "latitude": 39.1332,
    "longitude": -107.8549
  },
  "COZ010": {
    "name": "Gore and Elk Mountains/Central Mountain Valleys",
    "latitude": 39.4353,
    "longitude": -106.8147
  },
  "COZ011": {
    "name": "Central Gunnison and Uncompahgre River Basin",
    "latitude": 38.6735,
    "longitude": -107.9201
  },
  "COZ012": {
    "name": "West Elk and Sawatch Mountains",
    "latitude": 38.8011,
    "longitude": -107.0042
  },
  "COZ013": {
    "name": "Flat Tops",
    "latitude": 39.9766,
    "longitude": -107.4376
  },
  "COZ014": {
    "name": "Upper Gunnison River Valley",
    "latitude": 38.4776,
    "longitude": -107.1881
  },
  "COZ017": {
    "name": "Uncompahgre Plateau/Dallas Divide",
    "latitude": 38.5539,
    "longitude": -108.4296
  },
  "COZ018": {
    "name": "Northwestern San Juan Mountains",
    "latitude": 38.0588,
    "longitude": -107.5504
  },
  "COZ019": {
    "name": "Southwest San Juan Mountains",
    "latitude": 37.5205,
    "longitude": -107.6597
  },
  "COZ020": {
    "name": "Paradox Valley/Lower Dolores River",
    "latitude": 38.1963,
    "longitude": -108.7095
  },
  "COZ021": {
    "name": "Four Corners/Upper Dolores River",
    "latitude": 37.3809,
    "longitude": -108.7278
  },
  "COZ022": {
    "name": "Animas River Basin",
    "latitude": 37.1488,
    "longitude": -107.8775
  },
  "COZ023": {
    "name": "San Juan River Basin",
    "latitude": 37.1383,
    "longitude": -107.2004
  },
  "COZ030": {
    "name": "Jackson County Below 9000 Feet",
    "latitude": 40.6766,
    "longitude": -106.309
  },
  "COZ031": {
    "name": "West Jackson and West Grand Counties Above 9000 Feet",
    "latitude": 40.6175,
    "longitude": -106.6092
  },
  "COZ032": {
    "name": "Grand and Summit Counties Below 9000 Feet",
    "latitude": 40.0726,
    "longitude": -106.209
  },
  "COZ033": {
    "name": "South and East Jackson/Larimer/North and Northeast Grand/Northwest Boulder Counties Above 9000 Feet",
    "latitude": 40.488,
    "longitude": -105.9071
  },
  "COZ034": {
    "name": "South and Southeast Grand/West Central and Southwest Boulder/Gilpin/Clear Creek/Summit/North and West Park Counties Above 9000 Feet",
    "latitude": 39.6044,
    "longitude": -105.8505
  },
  "COZ035": {
    "name": "Larimer and Boulder Counties Between 6000 and 9000 Feet",
    "latitude": 40.6099,
    "longitude": -105.4708
  },
  "COZ036": {
    "name": "Jefferson and West Douglas Counties Above  6000 Feet/Gilpin/Clear Creek/Northeast Park Counties Below 9000 Feet",
    "latitude": 39.4838,
    "longitude": -105.2681
  },
  "COZ037": {
    "name": "Central and Southeast Park County",
    "latitude": 38.9846,
    "longitude": -105.6737
  },
  "COZ038": {
    "name": "Larimer County Below 6000 Feet/Northwest Weld County",
    "latitude": 40.7183,
    "longitude": -104.8423
  },
  "COZ039": {
    "name": "Boulder And Jefferson Counties Below 6000 Feet/West Broomfield County",
    "latitude": 39.9606,
    "longitude": -105.156
  },
  "COZ040": {
    "name": "North Douglas County Below 6000 Feet/Denver/West Adams and Arapahoe Counties/East Broomfield County",
    "latitude": 39.7656,
    "longitude": -104.804
  },
  "COZ041": {
    "name": "Elbert/Central and East Douglas Counties Above 6000 Feet",
    "latitude": 39.3075,
    "longitude": -104.5091
  },
  "COZ042": {
    "name": "Northeast Weld County",
    "latitude": 40.7427,
    "longitude": -104.0025
  },
  "COZ043": {
    "name": "Central and South Weld County",
    "latitude": 40.2668,
    "longitude": -104.5924
  },
  "COZ044": {
    "name": "Morgan County",
    "latitude": 40.2627,
    "longitude": -103.8098
  },
  "COZ045": {
    "name": "Central and East Adams and Arapahoe Counties",
    "latitude": 39.7839,
    "longitude": -104.1048
  },
  "COZ046": {
    "name": "North and Northeast Elbert County Below 6000 Feet/North Lincoln County",
    "latitude": 39.356,
    "longitude": -103.6814
  },
  "COZ047": {
    "name": "Southeast Elbert County Below 6000 Feet/South Lincoln County",
    "latitude": 38.8048,
    "longitude": -103.5944
  },
  "COZ048": {
    "name": "Logan County",
    "latitude": 40.7247,
    "longitude": -103.1101
  },
  "COZ049": {
    "name": "Washington County",
    "latitude": 39.971,
    "longitude": -103.2013
  },
  "COZ050": {
    "name": "Sedgwick County",
    "latitude": 40.8758,
    "longitude": -102.3518
  },
  "COZ051": {
    "name": "Phillips County",
    "latitude": 40.5939,
    "longitude": -102.3575
  },
  "COZ058": {
    "name": "Western Mosquito Range/East Lake County Above 11000 Ft",
    "latitude": 39.2545,
    "longitude": -106.2141
  },
  "COZ059": {
    "name": "Leadville Vicinity/Lake County Below 11000 Ft",
    "latitude": 39.1873,
    "longitude": -106.3446
  },
  "COZ060": {
    "name": "Eastern Sawatch Mountains above 11000 Ft",
    "latitude": 38.8197,
    "longitude": -106.3587
  },
  "COZ061": {
    "name": "Western Chaffee County Between 9000 and 11000 Ft",
    "latitude": 38.7415,
    "longitude": -106.2559
  },
  "COZ062": {
    "name": "Central Chaffee County Below 9000 Ft",
    "latitude": 38.6873,
    "longitude": -106.0928
  },
  "COZ063": {
    "name": "Western Mosquito Range/East Chaffee County above 9000Ft",
    "latitude": 38.8243,
    "longitude": -106.0253
  },
  "COZ064": {
    "name": "Saguache County West of Continental Divide Below 10000 Ft",
    "latitude": 38.3063,
    "longitude": -106.7044
  },
  "COZ065": {
    "name": "Saguache County East of Continental Divide below 10000 Ft",
    "latitude": 38.1071,
    "longitude": -106.3423
  },
  "COZ066": {
    "name": "La Garita Mountains Above 10000 Ft",
    "latitude": 38.0229,
    "longitude": -106.7318
  },
  "COZ067": {
    "name": "Upper Rio Grande Valley/Eastern San Juan Mountains Below 10000 Ft",
    "latitude": 37.469,
    "longitude": -106.5413
  },
  "COZ068": {
    "name": "Eastern San Juan Mountains Above 10000 Ft",
    "latitude": 37.4272,
    "longitude": -106.7002
  },
  "COZ069": {
    "name": "Del Norte Vicinity/Northern San Luis Valley Below 8500 Ft",
    "latitude": 37.9152,
    "longitude": -106.0348
  },
  "COZ070": {
    "name": "Alamosa  Vicinity/Central San Luis Valley Below 8500 Ft",
    "latitude": 37.5614,
    "longitude": -105.8929
  },
  "COZ071": {
    "name": "Southern San Luis Valley",
    "latitude": 37.2224,
    "longitude": -105.7537
  },
  "COZ072": {
    "name": "Northern Sangre de Cristo Mountains Between 8500 And 11000 Ft",
    "latitude": 37.9018,
    "longitude": -105.5379
  },
  "COZ073": {
    "name": "Northern Sangre de Cristo Mountains above 11000 Ft",
    "latitude": 37.9768,
    "longitude": -105.617
  },
  "COZ074": {
    "name": "Southern Sangre De Cristo Mountains Between 7500 and 11000 Ft",
    "latitude": 37.2245,
    "longitude": -105.0257
  },
  "COZ075": {
    "name": "Southern Sangre De Cristo Mountains Above 11000 Ft",
    "latitude": 37.2046,
    "longitude": -105.1708
  },
  "COZ076": {
    "name": "Northwestern Fremont County  Above 8500Ft",
    "latitude": 38.6012,
    "longitude": -105.6475
  },
  "COZ077": {
    "name": "Western/Central Fremont County Below 8500 Ft",
    "latitude": 38.4248,
    "longitude": -105.5558
  },
  "COZ078": {
    "name": "Wet Mountain Valley Below 8500 Ft",
    "latitude": 38.1353,
    "longitude": -105.4502
  },
  "COZ079": {
    "name": "Wet Mountains between 6300 and 10000Ft",
    "latitude": 38.046,
    "longitude": -105.1469
  },
  "COZ080": {
    "name": "Wet Mountains above 10000 Ft",
    "latitude": 37.9888,
    "longitude": -105.1345
  },
  "COZ081": {
    "name": "Teller County/Rampart Range above 7500fT/Pike's Peak Between 7500 And 11000 Ft",
    "latitude": 38.8708,
    "longitude": -105.113
  },
  "COZ082": {
    "name": "Pikes Peak above 11000 Ft",
    "latitude": 38.8156,
    "longitude": -105.0464
  },
  "COZ083": {
    "name": "Canon City Vicinity/Eastern Fremont County",
    "latitude": 38.4443,
    "longitude": -105.1148
  },
  "COZ084": {
    "name": "Northern El Paso County/Monument Ridge/Rampart Range Below 7500 Ft",
    "latitude": 39.0125,
    "longitude": -104.4498
  },
  "COZ085": {
    "name": "Colorado Springs Vicinity/Southern El Paso County/Rampart Range Below 7400 Ft",
    "latitude": 38.7125,
    "longitude": -104.5034
  },
  "COZ086": {
    "name": "Pueblo Vicinity/Pueblo County Below 6300 Feet",
    "latitude": 38.1821,
    "longitude": -104.4872
  },
  "COZ087": {
    "name": "Walsenburg Vicinity/Upper Huerfano River Basin Below 7500 Ft",
    "latitude": 37.6899,
    "longitude": -104.8578
  },
  "COZ088": {
    "name": "Trinidad Vicinity/Western Las Animas County Below 7500 Ft",
    "latitude": 37.3538,
    "longitude": -104.3935
  },
  "COZ089": {
    "name": "Crowley County",
    "latitude": 38.3266,
    "longitude": -103.7849
  },
  "COZ090": {
    "name": "Yuma County",
    "latitude": 40.0029,
    "longitude": -102.4243
  },
  "COZ091": {
    "name": "Kit Carson County",
    "latitude": 39.3054,
    "longitude": -102.6029
  },
  "COZ092": {
    "name": "Cheyenne County",
    "latitude": 38.8279,
    "longitude": -102.6034
  },
  "COZ093": {
    "name": "La Junta Vicinity/Otero County",
    "latitude": 37.9027,
    "longitude": -103.7164
  },
  "COZ094": {
    "name": "Eastern Las Animas County",
    "latitude": 37.3221,
    "longitude": -103.5645
  },
  "COZ095": {
    "name": "Western Kiowa County",
    "latitude": 38.424,
    "longitude": -103.0919
  },
  "COZ096": {
    "name": "Eastern Kiowa County",
    "latitude": 38.4414,
    "longitude": -102.3891
  },
  "COZ097": {
    "name": "Las Animas Vicinity/Bent County",
    "latitude": 37.9551,
    "longitude": -103.0717
  },
  "COZ098": {
    "name": "Lamar Vicinity/Prowers County",
    "latitude": 37.9552,
    "longitude": -102.3933
  },
  "COZ099": {
    "name": "Springfield Vicinity/Baca County",
    "latitude": 37.3192,
    "longitude": -102.5605
  },
  "CTZ000": {
    "name": "Any County",
    "latitude": 0.0,
    "longitude": 0.0
  },
  "CTZ001": {
    "name": "Northern Litchfield",
    "latitude": 41.8851,
    "longitude": -73.2502
  },
  "CTZ002": {
    "name": "Hartford",
    "latitude": 41.8064,
    "longitude": -72.7328
  },
  "CTZ003": {
    "name": "Tolland",
    "latitude": 41.855,
    "longitude": -72.3365
  },
  "CTZ004": {
    "name": "Windham",
    "latitude": 41.8299,
    "longitude": -71.9875
  },
  "CTZ005": {
    "name": "Northern Fairfield",
    "latitude": 41.353,
    "longitude": -73.3629
  },
  "CTZ006": {
    "name": "Northern New Haven",
    "latitude": 41.4648,
    "longitude": -72.9956
  },
  "CTZ007": {
    "name": "Northern Middlesex",
    "latitude": 41.4977,
    "longitude": -72.5551
  },
  "CTZ008": {
    "name": "Northern New London",
    "latitude": 41.5317,
    "longitude": -72.0992
  },
  "CTZ009": {
    "name": "Southern Fairfield",
    "latitude": 41.1301,
    "longitude": -73.435
  },
  "CTZ010": {
    "name": "Southern New Haven",
    "latitude": 41.3108,
    "longitude": -72.8154
  },
  "CTZ011": {
    "name": "Southern Middlesex",
    "latitude": 41.3211,
    "longitude": -72.4497
  },
  "CTZ012": {
    "name": "Southern New London",
    "latitude": 41.3616,
    "longitude": -72.1039
  },
  "CTZ013": {
    "name": "Southern Litchfield",
    "latitude": 41.6344,
    "longitude": -73.2368
  },
  "DCZ001": {
    "name": "District of Columbia",
    "latitude": 38.9093,
    "longitude": -77.0146
  },
  "DEZ000": {
    "name": "Any County",
    "latitude": 0.0,
    "longitude": 0.0
  },
  "DEZ001": {
    "name": "New Castle",
    "latitude": 39.5811,
    "longitude": -75.6488
  },
  "DEZ002": {
    "name": "Kent",
    "latitude": 39.0867,
    "longitude": -75.5688
  },
  "DEZ003": {
    "name": "Inland Sussex",
    "latitude": 38.6653,
    "longitude": -75.4181
  },
  "DEZ004": {
    "name": "Delaware Beaches",
    "latitude": 38.6114,
    "longitude": -75.0919
  },
  "FLZ000": {
    "name": "Any County",
    "latitude": 0.0,
    "longitude": 0.0
  },
  "FLZ007": {
    "name": "North Walton",
    "latitude": 30.8499,
    "longitude": -86.2133
  },
  "FLZ008": {
    "name": "Central Walton",
    "latitude": 30.5448,
    "longitude": -85.8977
  },
  "FLZ009": {
    "name": "Holmes",
    "latitude": 30.8679,
    "longitude": -85.8143
  },
  "FLZ010": {
    "name": "Washington",
    "latitude": 30.6106,
    "longitude": -85.6656
  },
  "FLZ011": {
    "name": "Jackson",
    "latitude": 30.78,
    "longitude": -84.9213
  },
  "FLZ012": {
    "name": "Inland Bay",
    "latitude": 30.366,
    "longitude": -85.5408
  },
  "FLZ013": {
    "name": "Calhoun",
    "latitude": 30.4061,
    "longitude": -85.1972
  },
  "FLZ014": {
    "name": "Inland Gulf",
    "latitude": 29.9508,
    "longitude": -85.1548
  },
  "FLZ015": {
    "name": "Inland Franklin",
    "latitude": 29.8935,
    "longitude": -85.023
  },
  "FLZ016": {
    "name": "Gadsden",
    "latitude": 30.5795,
    "longitude": -84.6137
  },
  "FLZ017": {
    "name": "Leon",
    "latitude": 30.4581,
    "longitude": -84.2778
  },
  "FLZ018": {
    "name": "Inland Jefferson",
    "latitude": 30.4578,
    "longitude": -83.8865
  },
  "FLZ019": {
    "name": "Madison",
    "latitude": 30.4441,
    "longitude": -83.47
  },
  "FLZ021": {
    "name": "Suwannee",
    "latitude": 30.1956,
    "longitude": -82.9915
  },
  "FLZ023": {
    "name": "Baker",
    "latitude": 30.331,
    "longitude": -82.2846
  },
  "FLZ024": {
    "name": "Inland Nassau",
    "latitude": 30.602,
    "longitude": -81.8808
  },
  "FLZ027": {
    "name": "Inland Wakulla",
    "latitude": 30.2025,
    "longitude": -84.4473
  },
  "FLZ028": {
    "name": "Inland Taylor",
    "latitude": 30.0954,
    "longitude": -83.5767
  },
  "FLZ029": {
    "name": "Lafayette",
    "latitude": 29.9855,
    "longitude": -83.1811
  },
  "FLZ030": {
    "name": "Union",
    "latitude": 30.0439,
    "longitude": -82.3714
  },
  "FLZ031": {
    "name": "Bradford",
    "latitude": 29.9502,
    "longitude": -82.1689
  },
  "FLZ034": {
    "name": "Inland Dixie",
    "latitude": 29.6711,
    "longitude": -83.1235
  },
  "FLZ035": {
    "name": "Gilchrist",
    "latitude": 29.7259,
    "longitude": -82.8006
  },
  "FLZ038": {
    "name": "Inland Flagler",
    "latitude": 29.4499,
    "longitude": -81.3306
  },
  "FLZ041": {
    "name": "Inland Volusia",
    "latitude": 29.0523,
    "longitude": -81.2449
  },
  "FLZ043": {
    "name": "Sumter",
    "latitude": 28.7046,
    "longitude": -82.081
  },
  "FLZ044": {
    "name": "Northern Lake County",
    "latitude": 28.9313,
    "longitude": -81.6301
  },
  "FLZ045": {
    "name": "Orange",
    "latitude": 28.5148,
    "longitude": -81.3238
  },
  "FLZ046": {
    "name": "Seminole",
    "latitude": 28.717,
    "longitude": -81.2362
  },
  "FLZ050": {
    "name": "Pinellas",
    "latitude": 28.1264,
    "longitude": -82.7303
  },
  "FLZ052": {
    "name": "Polk",
    "latitude": 27.9489,
    "longitude": -81.6978
  },
  "FLZ053": {
    "name": "Osceola",
    "latitude": 28.0627,
    "longitude": -81.1496
  },
  "FLZ056": {
    "name": "Hardee",
    "latitude": 27.4927,
    "longitude": -81.8099
  },
  "FLZ057": {
    "name": "Highlands",
    "latitude": 27.3434,
    "longitude": -81.341
  },
  "FLZ058": {
    "name": "Okeechobee",
    "latitude": 27.4283,
    "longitude": -80.9015
  },
  "FLZ061": {
    "name": "DeSoto",
    "latitude": 27.1863,
    "longitude": -81.8093
  },
  "FLZ063": {
    "name": "Glades",
    "latitude": 26.9605,
    "longitude": -81.2397
  },
  "FLZ066": {
    "name": "Hendry",
    "latitude": 26.5473,
    "longitude": -81.1719
  },
  "FLZ067": {
    "name": "Inland Palm Beach County",
    "latitude": 26.6172,
    "longitude": -80.5109
  },
  "FLZ068": {
    "name": "Metro Palm Beach County",
    "latitude": 26.6222,
    "longitude": -80.1464
  },
  "FLZ069": {
    "name": "Coastal Collier County",
    "latitude": 26.015,
    "longitude": -81.6016
  },
  "FLZ070": {
    "name": "Inland Collier County",
    "latitude": 26.138,
    "longitude": -81.293
  },
  "FLZ071": {
    "name": "Inland Broward County",
    "latitude": 26.1632,
    "longitude": -80.6145
  },
  "FLZ072": {
    "name": "Metro Broward County",
    "latitude": 26.1257,
    "longitude": -80.2706
  },
  "FLZ073": {
    "name": "Inland Miami-Dade County",
    "latitude": 25.6857,
    "longitude": -80.6786
  },
  "FLZ074": {
    "name": "Metropolitan Miami Dade",
    "latitude": 25.779,
    "longitude": -80.3602
  },
  "FLZ075": {
    "name": "Mainland Monroe",
    "latitude": 25.5205,
    "longitude": -81.0326
  },
  "FLZ076": {
    "name": "Monroe Upper Keys",
    "latitude": 25.1496,
    "longitude": -80.4175
  },
  "FLZ077": {
    "name": "Monroe Middle Keys",
    "latitude": 24.7471,
    "longitude": -80.9875
  },
  "FLZ078": {
    "name": "Monroe Lower Keys",
    "latitude": 24.6514,
    "longitude": -81.5526
  },
  "FLZ108": {
    "name": "South Walton",
    "latitude": 30.4183,
    "longitude": -86.171
  },
  "FLZ112": {
    "name": "Coastal Bay",
    "latitude": 30.2213,
    "longitude": -85.6654
  },
  "FLZ114": {
    "name": "Coastal Gulf",
    "latitude": 29.8173,
    "longitude": -85.2726
  },
  "FLZ115": {
    "name": "Coastal Franklin",
    "latitude": 29.9194,
    "longitude": -84.6607
  },
  "FLZ118": {
    "name": "Coastal Jefferson",
    "latitude": 30.1477,
    "longitude": -84.0221
  },
  "FLZ120": {
    "name": "Eastern Hamilton",
    "latitude": 30.4942,
    "longitude": -82.8552
  },
  "FLZ124": {
    "name": "Coastal Nassau",
    "latitude": 30.6366,
    "longitude": -81.5495
  },
  "FLZ125": {
    "name": "Coastal Duval",
    "latitude": 30.352,
    "longitude": -81.5262
  },
  "FLZ127": {
    "name": "Coastal Wakulla",
    "latitude": 30.0968,
    "longitude": -84.3009
  },
  "FLZ128": {
    "name": "Coastal Taylor",
    "latitude": 29.9258,
    "longitude": -83.6702
  },
  "FLZ132": {
    "name": "Eastern Clay",
    "latitude": 30.0117,
    "longitude": -81.6792
  },
  "FLZ134": {
    "name": "Coastal Dixie",
    "latitude": 29.4931,
    "longitude": -83.2252
  },
  "FLZ136": {
    "name": "Eastern Alachua",
    "latitude": 29.6896,
    "longitude": -82.2664
  },
  "FLZ137": {
    "name": "Eastern Putnam",
    "latitude": 29.5498,
    "longitude": -81.612
  },
  "FLZ138": {
    "name": "Coastal Flagler",
    "latitude": 29.5436,
    "longitude": -81.1875
  },
  "FLZ139": {
    "name": "Coastal Levy",
    "latitude": 29.2826,
    "longitude": -83.0885
  },
  "FLZ140": {
    "name": "Eastern Marion",
    "latitude": 29.217,
    "longitude": -81.7957
  },
  "FLZ141": {
    "name": "Coastal Volusia",
    "latitude": 29.0917,
    "longitude": -80.984
  },
  "FLZ142": {
    "name": "Coastal Citrus",
    "latitude": 28.8577,
    "longitude": -82.642
  },
  "FLZ144": {
    "name": "Southern Lake County",
    "latitude": 28.5634,
    "longitude": -81.8061
  },
  "FLZ148": {
    "name": "Coastal Hernando",
    "latitude": 28.5709,
    "longitude": -82.6112
  },
  "FLZ149": {
    "name": "Coastal Pasco",
    "latitude": 28.2916,
    "longitude": -82.6809
  },
  "FLZ151": {
    "name": "Coastal Hillsborough",
    "latitude": 27.9291,
    "longitude": -82.4769
  },
  "FLZ154": {
    "name": "Coastal Indian River",
    "latitude": 27.6872,
    "longitude": -80.4549
  },
  "FLZ155": {
    "name": "Coastal Manatee",
    "latitude": 27.4962,
    "longitude": -82.5574
  },
  "FLZ159": {
    "name": "Coastal St. Lucie",
    "latitude": 27.3965,
    "longitude": -80.3424
  },
  "FLZ160": {
    "name": "Coastal Sarasota",
    "latitude": 27.1492,
    "longitude": -82.4136
  },
  "FLZ162": {
    "name": "Coastal Charlotte",
    "latitude": 26.9118,
    "longitude": -82.1135
  },
  "FLZ164": {
    "name": "Coastal Martin",
    "latitude": 27.104,
    "longitude": -80.2014
  },
  "FLZ165": {
    "name": "Coastal Lee",
    "latitude": 26.5428,
    "longitude": -81.957
  },
  "FLZ168": {
    "name": "Coastal Palm Beach County",
    "latitude": 26.7053,
    "longitude": -80.0806
  },
  "FLZ172": {
    "name": "Coastal Broward County",
    "latitude": 26.1498,
    "longitude": -80.1266
  },
  "FLZ173": {
    "name": "Coastal Miami Dade County",
    "latitude": 25.5826,
    "longitude": -80.3116
  },
  "FLZ174": {
    "name": "Far South Miami-Dade County",
    "latitude": 25.299,
    "longitude": -80.6497
  },
  "FLZ201": {
    "name": "Escambia Inland",
    "latitude": 30.8244,
    "longitude": -87.4148
  },
  "FLZ202": {
    "name": "Escambia Coastal",
    "latitude": 30.4556,
    "longitude": -87.3014
  },